stop_id,stop_code,stop_name,stop_desc,stop_lat,stop_lon,zone_id,stop_url,location_type,parent_station,stop_timezone,wheelchair_boarding
HANMAIN,36,HANSON ST & E MAIN ST,,39.956666,-82.77903,,,,,,0
MOUWAYW,54,W MOUND ST & S WAYNE AVE,,39.938547,-83.062991,,,,,,0
MOREASS,281,MORSE CROSSING & EASTON WAY,,40.048117,-82.920331,,,,,,0
NORTER2,429,SPRING ST TERMINAL BAY 2,COTA NORTH TERMINAL ENTRANCE SVC & W SPRING ST,39.965888,-83.002424,,,,,,0
NORTER3,440,SPRING ST TERMINAL BAY 3,COTA NORTH TERMINAL ENTRANCE SVC & W SPRING ST,39.965808,-83.002412,,,,,,0
NORTER4,455,SPRING ST TERMINAL BAY 4,COTA NORTH TERMINAL ENTRANCE SVC & W SPRING ST,39.965718,-83.002388,,,,,,0
SOUTER3,467,COTA TRANSIT TERMINAL BAY 3,COTA SOUTH TERMINAL SOUTHBOUND PATH & E RICH ST,39.957014,-82.998932,,,,,,0
NORTER1,525,SPRING ST TERMINAL BAY 1,COTA NORTH TERMINAL ENTRANCE SVC & W SPRING ST,39.965968,-83.002436,,,,,,0
NORTER5,568,SPRING ST TERMINAL BAY 5,COTA NORTH TERMINAL ENTRANCE SVC & W SPRING ST,39.965638,-83.002376,,,,,,0
HIGHOSS,1059,S HIGH ST & HOSACK ST,,39.92302,-82.995545,,,,,,0
LIVBULW,1086,E LIVINGSTON AVE & BULEN AVE,,39.948836,-82.951647,,,,,,0
CLEMOUN,1089,CLEVELAND AVE & MOUNT VERNON AVE,,39.969554,-82.99037,,,,,,0
CLEJACN,1091,CLEVELAND AVE & JACK GIBBS BLVD,,39.972493,-82.990132,,,,,,0
CLE2NDN,1094,CLEVELAND AVE & E 2ND AVE,,39.982199,-82.989389,,,,,,0
CLESHON,1098,CLEVELAND AVE & SHOEMAKER AVE,,39.988178,-82.987305,,,,,,0
CLECAMN,1099,CLEVELAND AVE & CAMDEN AVE,,39.990831,-82.984583,,,,,,0
CLE11TN,1100,CLEVELAND AVE & E 11TH AVE,,39.993413,-82.981879,,,,,,0
CLECHIN,1101,CLEVELAND AVE & CHITTENDEN AVE,,39.995615,-82.979577,,,,,,0
CLEWINN,1102,CLEVELAND AVE & WINDSOR AVE,,39.997133,-82.977974,,,,,,0
CLE15TN,1103,CLEVELAND AVE & E 15TH AVE,,39.998468,-82.976803,,,,,,0
CLE17TN,1104,CLEVELAND AVE & E 17TH AVE,,40.000675,-82.975318,,,,,,0
RIDREDW,1105,RIDGECLIFF RD & REDDING RD,,40.023016,-83.070025,,,,,,0
CLE19TN,1106,CLEVELAND AVE & E 19TH AVE,,40.002498,-82.974205,,,,,,0
CLEDUXN,1110,CLEVELAND AVE & DUXBERRY AVE,,40.008692,-82.970345,,,,,,0
CLECORN,1111,CLEVELAND AVE & CORDELL AVE,,40.011141,-82.968854,,,,,,0
CLEHUDN,1113,CLEVELAND AVE & E HUDSON ST,,40.014283,-82.966885,,,,,,0
CLEREPN,1114,CLEVELAND AVE & REPUBLIC AVE,,40.015552,-82.966119,,,,,,0
CLEGENN,1116,CLEVELAND AVE & GENESSEE AVE,,40.019403,-82.964917,,,,,,0
CLEWEBN,1118,CLEVELAND AVE & E WEBER RD,,40.022961,-82.964612,,,,,,0
CLELAKN,1119,CLEVELAND AVE & E LAKEVIEW AVE,,40.025778,-82.964395,,,,,,0
CLENORBN,1122,CLEVELAND AVE & E NORTH BROADWAY,,40.029775,-82.964074,,,,,,0
CLEOAKN,1123,CLEVELAND AVE & OAKLAND PARK AVE,,40.031028,-82.963947,,,,,,0
CLEHUYN,1124,CLEVELAND AVE & HUY RD,,40.035966,-82.962985,,,,,,0
INNDERE,1125,INNIS RD & DERBYSHIRE DR,,40.037124,-82.958278,,,,,,0
INNUSPW,1127,INNIS RD & US POSTAL SERVICE,2200 INNIS RD,40.037179,-82.955294,,,,,,0
CLEHUYS,1132,CLEVELAND AVE & HUY RD,CLEVELAND AVE & CLEVELAND INNIS PLZ,40.035916,-82.963297,,,,,,0
CLEOAKS,1134,CLEVELAND AVE & OAKLAND PARK AVE,,40.03154,-82.964134,,,,,,0
CLENORS,1135,CLEVELAND AVE & E NORTH BROADWAY,,40.029236,-82.964277,,,,,,0
CLEWELS,1136,CLEVELAND AVE & WELDON AVE,,40.027433,-82.964417,,,,,,0
CLELAKS,1137,CLEVELAND AVE & E LAKEVIEW AVE,,40.025441,-82.964577,,,,,,0
CLEWEBS,1139,CLEVELAND AVE & E WEBER RD,,40.02293,-82.964823,,,,,,0
CLEABES,1140,CLEVELAND AVE & ABERDEEN AVE,,40.02034,-82.965028,,,,,,0
CLEGENS,1141,CLEVELAND AVE & GENESSEE AVE,,40.019214,-82.965118,,,,,,0
CLEHUDS,1143,CLEVELAND AVE & E HUDSON ST,,40.013425,-82.967624,,,,,,0
CLECORS,1144,CLEVELAND AVE & CORDELL AVE,,40.010981,-82.969128,,,,,,0
CLEMAYS,1145,CLEVELAND AVE & E MAYNARD AVE,,40.009574,-82.969991,,,,,,0
CLE26TS,1146,CLEVELAND AVE & E 26TH AVE,,40.007815,-82.971065,,,,,,0
CLE24TS,1147,CLEVELAND AVE & E 24TH AVE,,40.006441,-82.971912,,,,,,0
CLE22NS,1148,CLEVELAND AVE & E 22ND AVE,,40.004542,-82.97307,,,,,,0
CLE18TS,1150,CLEVELAND AVE & E 18TH AVE,,40.001395,-82.975098,,,,,,0
CLE17TS,1151,CLEVELAND AVE & E 17TH AVE,,39.99993,-82.976077,,,,,,0
CLE15TS,1152,CLEVELAND AVE & E 15TH AVE,,39.998827,-82.976748,,,,,,0
CLECHIS,1154,CLEVELAND AVE & CHITTENDEN AVE,,39.995158,-82.980264,,,,,,0
CLE11TS,1155,CLEVELAND AVE & E 11TH AVE,,39.993929,-82.981548,,,,,,0
CLECAMS,1157,CLEVELAND AVE & CAMDEN AVE,,39.990797,-82.984812,,,,,,0
CLEESSS,1158,CLEVELAND AVE & ESSEX AVE,,39.98779,-82.987898,,,,,,0
CLE2NDS,1162,CLEVELAND AVE & 2ND AVE,CLEVELAND AVE & REYNOLDS AVE,39.981173,-82.989635,,,,,,0
CLE427S,1163,427 CLEVELAND AVE,,39.972679,-82.990338,,,,,,0
CLEMOUS,1166,CLEVELAND AVE & MOUNT VERNON AVE,,39.969412,-82.990554,,,,,,0
BRODOUE,1167,E BROAD ST & S DOUGLAS ST,,39.964733,-82.977962,,,,,,0
BROMAPE,1168,E BROAD ST & MAPLEWOOD AVE,,39.973168,-82.901904,,,,,,0
BROCOLE,1169,E BROAD ST & COLLINGWOOD AVE,,39.973432,-82.899294,,,,,,0
BROHOLE,1170,E BROAD ST & HOLIDAY LANES,,39.975546,-82.879085,,,,,,0
BROCARE,1171,E BROAD ST & CARDINAL PARK DR,,39.977563,-82.860342,,,,,,0
BROCARW,1172,E BROAD ST & CARDINAL PARK DR,RAMP & E BROAD ST,39.977818,-82.859826,,,,,,0
HAMETNN,1174,S HAMILTON RD & ETNA RD,,39.964279,-82.875928,,,,,,0
HIGRUSN,1178,N HIGH ST & E RUSSELL ST,,39.975825,-83.003188,,,,,,0
HIG2NDN,1182,N HIGH ST & E 2ND AVE,,39.983318,-83.004658,,,,,,0
HIG5THN,1184,N HIGH ST & E 5TH AVE,,39.987609,-83.005524,,,,,,0
HIG6THN,1185,N HIGH ST & E 6TH AVE,,39.989174,-83.005819,,,,,,0
HIGEUCN,1186,N HIGH ST & EUCLID AVE,,39.991224,-83.006225,,,,,,0
HIGCHIN,1188,N HIGH ST & CHITTENDEN AVE,,39.99602,-83.007178,,,,,,0
HIG13TN,1189,N HIGH ST & E 13TH AVE,,39.997729,-83.007506,,,,,,0
HIG15TN,1190,N HIGH ST & E 15TH AVE,,40.000285,-83.007989,,,,,,0
HIGWOON,1192,N HIGH ST & W WOODRUFF AVE,,40.003566,-83.008642,,,,,,0
HIGLANN,1193,N HIGH ST & E LANE AVE,,40.006365,-83.00921,,,,,,0
HIGNORN,1194,N HIGH ST & E NORTHWOOD AVE,,40.007789,-83.00949,,,,,,0
HIGPATN,1195,N HIGH ST & PATTERSON AVE,,40.009907,-83.010044,,,,,,0
HIGBLAN,1196,N HIGH ST & E BLAKE AVE,,40.011654,-83.0105,,,,,,0
HIGHUDN,1197,N HIGH ST & E HUDSON ST,,40.01426,-83.011194,,,,,,0
HIGDODN,1198,N HIGH ST & E DODRIDGE ST,,40.016549,-83.011808,,,,,,0
HIGOLEN,1200,N HIGH ST & OLENTANGY ST,,40.019489,-83.012549,,,,,,0
HIGKELN,1201,N HIGH ST & E KELSO RD,,40.021572,-83.0131,,,,,,0
HIGWEBN,1202,N HIGH ST & E WEBER RD,,40.024318,-83.013843,,,,,,0
HIGPACN,1203,N HIGH ST & E PACEMONT RD,,40.026515,-83.014402,,,,,,0
HIGCOMN,1204,N HIGH ST & E COMO AVE,,40.028486,-83.014928,,,,,,0
HIGNORN1,1206,N HIGH ST & E NORTH BROADWAY,,40.031894,-83.01582,,,,,,0
HIGTORN,1208,N HIGH ST & E TORRENCE RD,,40.03504,-83.016675,,,,,,0
HIGGLENN,1209,N HIGH ST & GLENCOE RD,,40.037462,-83.017317,,,,,,0
HIGFALN,1210,N HIGH ST & FALLIS RD,,40.039262,-83.017799,,,,,,0
HIGACTN,1211,N HIGH ST & ACTON RD,,40.041043,-83.018284,,,,,,0
HIGGLEN,1213,N HIGH ST & GLENMONT AVE,,40.044801,-83.0193,,,,,,0
HIGINDN,1215,N HIGH ST & INDIAN SPRINGS DR,,40.047648,-83.020074,,,,,,0
HIGCOON,1216,N HIGH ST & E COOKE RD,,40.050206,-83.020081,,,,,,0
HIGSCHN,1217,N HIGH ST & E SCHREYER PL,,40.05243,-83.019959,,,,,,0
HIGWEIN,1218,N HIGH ST & E WEISHEIMER RD,,40.055285,-83.019802,,,,,,0
HIGBEAN,1219,N HIGH ST & E BEAUMONT RD,,40.057521,-83.019665,,,,,,0
HIGMORN,1222,N HIGH ST & MORSE RD,N HIGH ST & LELAND AVE,40.06335,-83.019332,,,,,,0
HIG522N,1224,5220 N HIGH ST,,40.068606,-83.019063,,,,,,0
HIGKANN,1225,N HIGH ST & E KANAWHA AVE,,40.070938,-83.018945,,,,,,0
HIGMEAN,1227,N HIGH ST & MEADOWLARK LN,,40.07339,-83.018818,,,,,,0
HIGSELN,1229,N HIGH ST & E SELBY BLVD,,40.077079,-83.018629,,,,,,0
HIGSOUTN,1230,N HIGH ST & E SOUTHINGTON AVE,,40.080403,-83.018454,,,,,,0
HIGSOUN,1232,HIGH ST & E SOUTH ST,,40.084195,-83.018254,,,,,,0
HIGNEWN,1233,HIGH ST & NEW ENGLAND AVE,,40.086581,-83.018122,,,,,,0
HIG161N,1234,N HIGH ST & STATE ROUTE 161,,40.088592,-83.017994,,,,,,0
HIGSTAFN,1235,HIGH ST & STAFFORD AVE,,40.090752,-83.01787,,,,,,0
HIGNORN3,1236,HIGH ST & E NORTH ST,,40.092811,-83.017755,,,,,,0
HIGLARN,1238,N HIGH ST & LARRIMER AVE,,40.099024,-83.01732,,,,,,0
HIGHALN,1240,N HIGH ST & HALLIGAN AVE,,40.103554,-83.017036,,,,,,0
NORWILSS,1243,NORTHWEST BLVD & WILSHIRE DR,,40.009723,-83.058083,,,,,,0
HARLAUS,1244,HARRISBURG PIKE & LAUREL AVE,,39.934689,-83.045082,,,,,,0
BRO1STS,1249,BROADWAY & 1ST AVE,,39.899425,-83.079517,,,,,,0
HIGSTAS,1251,S HIGH ST & W STATE ST,,39.960285,-83.000381,,,,,,0
HIGWORS,1252,N HIGH ST & WORTHINGTON GALENA RD,,40.095437,-83.017751,,,,,,0
HIGNORTS,1253,N HIGH ST & W NORTH ST,,40.092656,-83.017952,,,,,,0
HIGSTAFS,1254,HIGH ST & STAFFORD AVE,,40.091242,-83.018032,,,,,,0
HIG161S,1255,N HIGH ST & STATE ROUTE 161,,40.08914,-83.018156,,,,,,0
HIGNEWS,1256,HIGH ST & NEW ENGLAND AVE,,40.086901,-83.018295,,,,,,0
HIGSOUS,1257,N HIGH ST & W SOUTH ST,,40.084588,-83.018448,,,,,,0
HIGSOUTS,1259,N HIGH ST & W SOUTHINGTON AVE,,40.080338,-83.018668,,,,,,0
HIGSELS,1260,N HIGH ST & W SELBY BLVD,,40.076818,-83.018842,,,,,,0
HIGBROAS,1262,N HIGH ST & BROADMEADOWS BLVD,,40.073281,-83.019023,,,,,,0
HIGKANS,1263,N HIGH ST & W KANAWHA AVE,,40.071322,-83.019137,,,,,,0
HIGFENS,1264,N HIGH ST & FENWAY RD,,40.067701,-83.019307,,,,,,0
HIG521S,1265,5211 N HIGH ST,,40.068938,-83.019253,,,,,,0
HIGGRA2S,1266,N HIGH ST & GRACELAND BLVD 2,,40.064672,-83.019459,,,,,,0
HIGJEFS,1268,N HIGH ST & E JEFFREY PL,,40.061622,-83.019633,,,,,,0
HIGBEES,1270,N HIGH ST & W BEECHWOLD BLVD,,40.058736,-83.019785,,,,,,0
HIGSHES,1271,N HIGH ST & SHEFFIELD RD,,40.056126,-83.019942,,,,,,0
HIGHENS,1273,N HIGH ST & W HENDERSON RD,,40.05161,-83.0202,,,,,,0
HIGCOOS,1274,N HIGH ST & W COOKE RD,,40.049481,-83.020322,,,,,,0
HIGWESS,1275,N HIGH ST & WESTWOOD RD,,40.046871,-83.020053,,,,,,0
HIGBLES,1276,N HIGH ST & BLENHEIM RD,,40.044104,-83.019309,,,,,,0
HIGCHAS,1277,N HIGH ST & CHATHAM RD,,40.042096,-83.018767,,,,,,0
HIGAMAS,1278,N HIGH ST & AMAZON PL,,40.0403,-83.018287,,,,,,0
HIGNORMS,1279,N HIGH ST & NORTHMOOR PL,,40.036224,-83.017185,,,,,,0
HIGKENS,1280,N HIGH ST & W KENWORTH RD,,40.032893,-83.016325,,,,,,0
HIGNORS,1281,N HIGH ST & W NORTH BROADWAY ST,,40.030851,-83.015793,,,,,,0
HIGLAKS,1283,N HIGH ST & W LAKEVIEW AVE,,40.027295,-83.01485,,,,,,0
HIGWEBS,1284,N HIGH ST & W WEBER RD,,40.024689,-83.014164,,,,,,0
HIGCRES,1285,N HIGH ST & CRESTVIEW RD,,40.022585,-83.013612,,,,,,0
HIGOLES,1286,N HIGH ST & OLENTANGY ST,,40.019816,-83.01288,,,,,,0
HIGDODS,1287,N HIGH ST & W DODRIDGE ST,,40.016273,-83.011874,,,,,,0
HIGHUDS,1288,N HIGH ST & W HUDSON ST,,40.014079,-83.011307,,,,,,0
HIGMAYS,1290,N HIGH ST & W MAYNARD AVE,,40.01139,-83.010561,,,,,,0
HIGOAKS,1291,N HIGH ST & W OAKLAND AVE,,40.009249,-83.010043,,,,,,0
HIGNORWS,1292,N HIGH ST & W NORTHWOOD AVE,,40.007766,-83.009657,,,,,,0
HIG15TS,1295,N HIGH ST & E 15TH AVE,0 N HIGH ST & E 15TH AVE,40.000207,-83.008175,,,,,,0
HIG13TS,1296,N HIGH ST & E 13TH AVE,,39.998105,-83.00777,,,,,,0
HIGCHIS,1297,N HIGH ST & CHITTENDEN AVE,,39.995901,-83.007325,,,,,,0
HIG10TS,1298,N HIGH ST & W 10TH AVE,,39.993781,-83.006902,,,,,,0
HIGCLAS,1301,N HIGH ST & CLARK PL,,39.988966,-83.005955,,,,,,0
HIG5THS,1302,N HIGH ST & W 5TH AVE,,39.986763,-83.005527,,,,,,0
HIG4THS,1303,N HIGH ST & W 4TH AVE,,39.98496,-83.005203,,,,,,0
HIGHUBS,1306,N HIGH ST & W HUBBARD AVE,,39.978538,-83.003938,,,,,,0
HIGRUSS,1308,N HIGH ST & W RUSSELL ST,,39.975286,-83.00323,,,,,,0
COLRICW,1309,COLUMBUS ST & RICHARD AVE,,39.88154,-83.080869,,,,,,0
BRO1STN,1312,BROADWAY & 1ST AVE,,39.899293,-83.079356,,,,,,0
HARBLUN,1313,HARRISBURG PIKE & BLUE ROCK BLVD,,39.910849,-83.069464,,,,,,0
NEICOLN,1318,NEIL AVE & COLLINS AVE,,39.976196,-83.010772,,,,,,0
3RDNORW,1329,W 3RD AVE & NORTON AVE,,39.984595,-83.0319,,,,,,0
3RDOXLW,1330,W 3RD AVE & OXLEY RD,,39.984727,-83.034929,,,,,,0
GOO868W,1332,868 W GOODALE BLVD,,39.974396,-83.027015,,,,,,0
NORTHONW,1333,NORTHWEST BLVD & THORNWOOD PL,,39.986967,-83.04082,,,,,,0
NOR5THN,1334,NORTHWEST BLVD & W 5TH AVE,,39.988911,-83.040689,,,,,,0
HIGHALS,1336,N HIGH ST & HALLIGAN AVE,,40.103119,-83.017269,,,,,,0
NORGLENW,1341,NORTHWEST BLVD & GLENN AVE,,39.998608,-83.052666,,,,,,0
NORBARNW,1342,NORTHWEST BLVD & BARRINGTON RD,,39.999801,-83.054031,,,,,,0
NORGUINW,1343,NORTHWEST BLVD & GUILFORD RD,,40.001613,-83.055291,,,,,,0
NORBRANW,1344,NORTHWEST BLVD & BRANDON RD,,40.003121,-83.057064,,,,,,0
MAI5THE,1347,E MAIN ST & S 5TH ST,,39.956876,-82.992364,,,,,,0
GRESURE,1356,GREENWAY AVE & SURREY PL,GREENWAY AVE S & SURREY PL,39.97304,-82.952285,,,,,,0
NELAVAN,1358,N NELSON RD & AVALON PL,,39.982398,-82.94266,,,,,,0
NELOPPN,1360,N NELSON RD & MARGARET AVE,,39.984798,-82.941564,,,,,,0
NELAVAS,1363,N NELSON RD & AVALON PL,,39.981882,-82.94307,,,,,,0
HIGLARS,1379,N HIGH ST & LARRIMER AVE,,40.098805,-83.017529,,,,,,0
5TH220W,1382,2200 W 5TH AVE,,39.989715,-83.065637,,,,,,0
5TH2200E,1384,2200 W 5TH AVE,,39.989582,-83.065361,,,,,,0
HIGSTEN,1385,S HIGH ST & STEWART AVE,,39.941826,-82.99657,,,,,,0
3RDNWBE,1395,W 3RD AVE & NORTHWEST BLVD,,39.984792,-83.038561,,,,,,0
3RDOXLE,1397,W 3RD AVE & OXLEY RD,,39.984633,-83.034702,,,,,,0
NEICOLS,1408,NEIL AVE & COLLINS AVE,0 NEIL AVE & W POPLAR AVE,39.976133,-83.010902,,,,,,0
NEIGOOS,1409,NEIL AVE & W GOODALE ST,,39.974442,-83.010669,,,,,,0
4TH803N,1416,803 N 4TH ST,,39.979403,-82.998052,,,,,,0
4TH2NDN,1418,N 4TH ST & E 2ND AVE,,39.982598,-82.998669,,,,,,0
4THDETN,1419,N 4TH ST & DETROIT AVE,,39.984476,-82.999031,,,,,,0
4TH5THN,1420,N 4TH ST & E 5TH AVE,,39.987295,-82.999474,,,,,,0
4TH9THN,1423,N 4TH ST & E 9TH AVE,,39.993087,-82.999114,,,,,,0
4THCHIN,1425,N 4TH ST & CHITTENDEN AVE,,39.995224,-82.998979,,,,,,0
4TH15TN,1427,N 4TH ST & E 15TH AVE,,39.999446,-82.998671,,,,,,0
4TH18TN,1428,N 4TH ST & E 18TH AVE,,40.002163,-82.998477,,,,,,0
4THLANN,1430,N 4TH ST & E LANE AVE,,40.005627,-82.998235,,,,,,0
4THALDN,1432,4TH ST & ALDEN AVE,N 4TH ST & ALDEN AVE,40.008527,-82.99804,,,,,,0
4THMAYN,1433,N 4TH ST & MAYNARD AVE,N 4TH ST & CHILCOTE AVE,40.011384,-82.997832,,,,,,0
4THCLIN,1434,N 4TH ST & CLINTON ST,,40.013338,-82.997682,,,,,,0
HUDSUMW,1436,E HUDSON ST & SUMMIT ST,,40.015189,-83.000464,,,,,,0
INDARCN,1438,INDIANOLA AVE & E ARCADIA AVE,,40.017252,-83.001975,,,,,,0
INDPARN,1439,INDIANOLA AVE & PARKVIEW DR,,40.019862,-83.001789,,,,,,0
INDTULN,1441,INDIANOLA AVE & E TULANE RD,,40.022615,-83.001627,,,,,,0
INDWEBN,1442,INDIANOLA AVE & E WEBER RD,,40.024278,-83.001531,,,,,,0
INDMILN,1443,INDIANOLA AVE & MILFORD AVE,,40.02605,-83.001383,,,,,,0
INDCOMN,1444,INDIANOLA AVE & E COMO AVE,,40.027912,-83.00125,,,,,,0
INDCLIN,1445,INDIANOLA AVE & CLINTON HGTS AVE,,40.029849,-83.001069,,,,,,0
INDNORN,1446,INDIANOLA AVE & E N BROADWAY,INDIANOLA AVE & E NORTH BROADWAY,40.031582,-83.000921,,,,,,0
INDPIEN,1448,INDIANOLA AVE & PIEDMONT RD,,40.034704,-83.000719,,,,,,0
INDTORN,1449,INDIANOLA AVE & TORRENCE RD,,40.036662,-83.000581,,,,,,0
INDFALN,1450,INDIANOLA AVE & FALLIS RD,,40.038868,-83.000428,,,,,,0
INDNORTN,1452,INDIANOLA AVE & NORTHRIDGE RD,,40.041894,-83.000154,,,,,,0
INDGLEN,1453,INDIANOLA AVE & GLENMONT AVE,,40.04407,-82.999992,,,,,,0
INDCOON,1454,INDIANOLA AVE & E COOKE RD,,40.049251,-82.999786,,,,,,0
INDWEIN,1457,INDIANOLA AVE & E WEISHEIMER RD,,40.054291,-83.000236,,,,,,0
INDBEAN,1458,INDIANOLA AVE & E BEAUMONT RD,,40.05721,-83.000502,,,,,,0
INDJEFN,1460,INDIANOLA AVE & E JEFFREY PL,,40.060612,-83.000946,,,,,,0
MORCOLW,1461,MORSE RD & COLERAIN AVE,,40.06185,-83.003354,,,,,,0
MORBEEW,1462,MORSE RD & BEECH HILL AVE,,40.061968,-83.00614,,,,,,0
MORELKW,1464,MORSE RD & ELKS DR,,40.062147,-83.010863,,,,,,0
MORFOSW,1465,MORSE RD & FOSTER ST,,40.062298,-83.014237,,,,,,0
MORBEECW,1466,MORSE RD & BEECHMONT DR,,40.062398,-83.016365,,,,,,0
BROOLDW,1467,W BROAD ST & OLD VILLAGE RD,,39.95257,-83.124184,,,,,,0
MORFOSE,1470,MORSE RD & FOSTER ST,,40.062158,-83.014094,,,,,,0
MORELKE,1471,MORSE RD & ELKS DR,,40.062041,-83.011355,,,,,,0
MORSHAE,1472,MORSE RD & SHARON AVE,,40.061908,-83.008022,,,,,,0
MORCOLE,1474,MORSE RD & COLERAIN AVE,,40.061703,-83.003226,,,,,,0
INDJEFS,1475,INDIANOLA AVE & E JEFFREY PL,,40.060441,-83.001082,,,,,,0
HIGDELS,1476,S HIGH ST & DELRAY RD,,39.91059,-82.995466,,,,,,0
INDBEAS,1478,INDIANOLA AVE & E BEAUMONT RD,,40.056855,-83.000623,,,,,,0
HIGHIGHN,1479,N HIGH ST & HIGHLAND AVE,,40.105483,-83.016919,,,,,,0
INDSCHS,1480,INDIANOLA AVE & SCHREYER PL,,40.051899,-83.000181,,,,,,0
INDCOOS,1481,INDIANOLA AVE & E COOKE RD,,40.048228,-82.999937,,,,,,0
INDGLES,1482,INDIANOLA AVE & GLENMONT AVE,,40.044376,-83.000121,,,,,,0
INDNORTS,1483,INDIANOLA AVE & NORTHRIDGE RD,,40.042163,-83.000314,,,,,,0
INDFALS,1485,INDIANOLA AVE & FALLIS RD,,40.038657,-83.000608,,,,,,0
INDTORS,1486,INDIANOLA AVE & E TORRENCE RD,,40.036485,-83.000755,,,,,,0
INDOAKS,1488,INDIANOLA AVE & OAKLAND PARK AVE,,40.033176,-83.000973,,,,,,0
INDNORS,1489,INDIANOLA AVE & E NORTH BROADWAY,,40.03106,-83.001152,,,,,,0
INDWALS,1490,INDIANOLA AVE & WALHALLA RD,,40.028941,-83.001328,,,,,,0
INDMELS,1491,INDIANOLA AVE & MELROSE AVE,,40.025432,-83.001615,,,,,,0
INDTIBS,1492,INDIANOLA AVE & TIBET RD,,40.023728,-83.001736,,,,,,0
INDCRES,1493,INDIANOLA AVE & CRESTVIEW RD,,40.022098,-83.001848,,,,,,0
INDOLES,1494,INDIANOLA AVE & OLENTANGY ST,,40.020437,-83.001952,,,,,,0
INDARCS,1495,INDIANOLA AVE & E ARCADIA AVE,0 INDIANOLA AVE & ARCADIA AVE,40.017493,-83.00217,,,,,,0
HUDSUME,1497,E HUDSON ST & SUMMIT ST,,40.015099,-83.000871,,,,,,0
SUMMAYS,1499,SUMMIT ST & E MAYNARD AVE,,40.010888,-83.000494,,,,,,0
SUMALDS,1501,SUMMIT ST & ALDEN AVE,,40.007846,-83.000721,,,,,,0
SUMLANS,1502,SUMMIT ST & E LANE AVE,,40.005454,-83.000882,,,,,,0
SUM18TS,1504,SUMMIT ST & E 18TH AVE,0 SUMMIT ST & E 18TH AVE,40.002535,-83.001077,,,,,,0
SUM15TS,1505,SUMMIT ST & E 15TH AVE,SUMMIT ST & ALY,39.999635,-83.001272,,,,,,0
SUMCHIS,1507,SUMMIT ST & CHITTENDEN AVE,SUMMIT ST & ALY,39.995404,-83.00156,,,,,,0
SUM7THS,1510,SUMMIT ST & E 7TH AVE,,39.99033,-83.001899,,,,,,0
SUM5THS,1511,SUMMIT ST & E 5TH AVE,0 SUMMIT ST & E 5TH AVE,39.986603,-83.002181,,,,,,0
SUM2NDS,1513,SUMMIT ST & E 2ND AVE,,39.982279,-83.00125,,,,,,0
SUMWARS,1515,SUMMIT ST & WARREN ST,,39.979067,-83.000575,,,,,,0
CLECOON1,1517,CLEVELAND AVE & COOKE RD,CLEVELAND AVE & PEGG RD,40.045272,-82.95756,,,,,,0
5THDENW,1518,W 5TH AVE & DENNISON AVE,,39.987267,-83.00813,,,,,,0
5THHIGW,1519,W 5TH AVE & HIGHLAND ST,,39.987365,-83.011105,,,,,,0
5THNEIW,1520,W 5TH AVE & NEIL AVE,0 W 5TH AVE & UNNAMED ALY,39.987474,-83.013454,,,,,,0
5THMICW,1522,W 5TH AVE & MICHIGAN AVE,,39.987548,-83.016427,,,,,,0
5THPERW,1523,W 5TH AVE & PERRY ST,,39.987637,-83.018613,,,,,,0
5THTISW,1524,W 5TH AVE & TISDALE,,39.987737,-83.021212,,,,,,0
5THOLEW,1525,W 5TH AVE & OLENTANGY RIVER RD,,39.987945,-83.02646,,,,,,0
5THHESW,1527,W 5TH AVE & HESS ST,0 W 5TH AVE & NORTON AVE,39.988244,-83.031993,,,,,,0
5THKENW,1529,W 5TH AVE & KENNY RD,,39.988382,-83.035246,,,,,,0
5THDOTW,1530,W 5TH AVE & DOTEN AVE,,39.988507,-83.037735,,,,,,0
5THNORTW,1531,W 5TH AVE & NORTHWEST BLVD,,39.988646,-83.040543,,,,,,0
5THGRANW,1532,W 5TH AVE & GRANDVIEW AVE,,39.988835,-83.044265,,,,,,0
5THFAIW,1533,W 5TH AVE & FAIRVIEW AVE,,39.989,-83.047544,,,,,,0
5THASHW,1535,W 5TH AVE & ASHLAND AVE,,39.989115,-83.050164,,,,,,0
5THWESW,1536,W 5TH AVE & WESTWOOD AVE,,39.989209,-83.052682,,,,,,0
5THWYAW,1537,W 5TH AVE & WYANDOTTE RD,,39.989322,-83.055638,,,,,,0
5THCAMW,1538,W 5TH AVE & CAMBRIDGE BLVD,0 W 5TH AVE & FERNWOOD AVE,39.989447,-83.057918,,,,,,0
TRELANGN,1557,TREMONT RD & LANGHAM RD,,40.020787,-83.061183,,,,,,0
RIDTREW,1558,RIDGECLIFF RD & TREMONT RD,,40.022538,-83.060265,,,,,,0
RIDSOMW,1559,RIDGECLIFF RD & SOMERFORD RD,,40.022694,-83.063418,,,,,,0
RIDCOLW,1560,RIDGECLIFF RD & COLCHESTER RD,,40.022849,-83.066522,,,,,,0
RIDREDE,1574,RIDGECLIFF RD & REDDING RD,,40.02289,-83.069173,,,,,,0
RIDCOLE,1575,RIDGECLIFF RD & COLCHESTER RD,,40.022759,-83.066294,,,,,,0
RIDSOME,1576,RIDGECLIFF RD & SOMERFORD RD,,40.022595,-83.063001,,,,,,0
4THTOWN,1586,S 4TH ST & E TOWN ST,,39.958973,-82.995428,,,,,,0
5THCAME,1599,W 5TH AVE & CAMBRIDGE BLVD,,39.989314,-83.057926,,,,,,0
5THWYAE,1600,W 5TH AVE & WYANDOTTE RD,,39.989221,-83.055496,,,,,,0
5THWESE,1601,W 5TH AVE & WESTWOOD AVE,,39.989112,-83.052857,,,,,,0
5THASHE,1602,W 5TH AVE & ASHLAND AVE,,39.989011,-83.050358,,,,,,0
5THFAIE,1604,W 5TH AVE & FAIRVIEW AVE,,39.98888,-83.047631,,,,,,0
5THGRANE,1605,W 5TH AVE & GRANDVIEW AVE,,39.988741,-83.044634,,,,,,0
5THNORTE,1606,W 5TH AVE & NORTHWEST BLVD,,39.988566,-83.04114,,,,,,0
5THDOTE,1607,W 5TH AVE & DOTEN AVE,,39.988411,-83.038096,,,,,,0
5THEASE,1608,W 5TH AVE & EASTVIEW AVE,,39.9883,-83.03581,,,,,,0
5THHOLE,1609,W 5TH AVE & HOLLY AVE,,39.988186,-83.033569,,,,,,0
5THEDGE,1611,W 5TH AVE & EDGEHILL RD,,39.987948,-83.028914,,,,,,0
5THOLEE,1612,W 5TH AVE & OLENTANGY RIVER RD,W 5TH AVE & OLENTANGY RIV RD,39.987801,-83.025864,,,,,,0
5THPERE,1614,W 5TH AVE & PERRY ST,,39.987561,-83.019056,,,,,,0
5THMICE,1615,W 5TH AVE & MICHIGAN AVE,,39.987476,-83.016839,,,,,,0
5THHIGE,1618,W 5TH AVE & HIGHLAND ST,,39.98725,-83.011103,,,,,,0
5THDENE,1619,W 5TH AVE & DENNISON AVE,,39.987153,-83.008523,,,,,,0
CLEFUJN,1620,CLEVELAND AVE & FUJI DR,,40.088781,-82.950665,,,,,,0
MARHAME,1625,MARTIN LUTHER KING & HAMILTON AVE,,39.968762,-82.981551,,,,,,0
MOUGARE,1627,MOUNT VERNON AVE & N GARFIELD AVE,,39.970955,-82.979411,,,,,,0
MOU18TE,1629,MOUNT VERNON AVE & N 18TH ST,,39.971639,-82.975812,,,,,,0
MOU20TE,1630,MOUNT VERNON AVE & N 20TH ST,,39.972044,-82.973551,,,,,,0
MOU22NE,1631,MOUNT VERNON AVE & N 22ND ST,,39.972486,-82.971179,,,,,,0
MOUCHAE,1632,MOUNT VERNON AVE & N CHAMPION AVE,,39.972994,-82.968266,,,,,,0
MOUBURE,1634,MOUNT VERNON AVE & BURT ST,,39.973829,-82.963424,,,,,,0
MOUTAYE,1635,MOUNT VERNON AVE & TAYLOR AVE,,39.974166,-82.961356,,,,,,0
NELMARGS,1637,N NELSON RD & MARGARET AVE,,39.984823,-82.941706,,,,,,0
5THLEONE,1640,E 5TH AVE & LEONARD AVE,,39.984987,-82.956336,,,,,,0
MAIHIGE,1644,E MAIN ST & S HIGH ST,,39.956245,-82.998472,,,,,,0
MAI4THE,1645,E MAIN ST & S 4TH ST,,39.956609,-82.994657,,,,,,0
5THCASE,1646,E 5TH AVE & N CASSADY AVE,,39.985015,-82.931134,,,,,,0
5THALTE,1648,E 5TH AVE & ALTON AVE,,39.984885,-82.926497,,,,,,0
5THRARE,1649,E 5TH AVE & RARIG AVE,,39.984808,-82.92403,,,,,,0
CLEOLDS,1652,S CLEVELAND AVE & OLD COACH RD,,40.119894,-82.948615,,,,,,0
CLE340S1,1653,340 S CLEVELAND AVE,,40.116707,-82.948828,,,,,,0
7THSTEE,1654,E 7TH AVE & STELZER RD,,39.98622,-82.913699,,,,,,0
OSB5THS,1655,OSBORN AVE & E 5TH AVE,,39.984802,-82.912771,,,,,,0
5THKRUW,1657,E 5TH AVE & KRUMM AVE,,39.984723,-82.917568,,,,,,0
5THSTERW,1658,E 5TH AVE & STERLING AVE,,39.9848,-82.92061,,,,,,0
5THRARW,1659,E 5TH AVE & RARIG AVE,,39.984872,-82.92345,,,,,,0
5THALTW,1660,E 5TH AVE & ALTON AVE,,39.985008,-82.926679,,,,,,0
5THCASW,1662,E 5TH AVE & N CASSADY AVE,,39.985168,-82.931295,,,,,,0
MOUTAYW,1673,MOUNT VERNON AVE & TAYLOR AVE,,39.974224,-82.961594,,,,,,0
MOUGRAHW,1674,MOUNT VERNON AVE & GRAHAM ST,,39.973811,-82.96405,,,,,,0
MOUCHAW,1675,MOUNT VERNON AVE & N CHAMPION AVE,,39.973063,-82.968466,,,,,,0
MOU22NW,1676,MOUNT VERNON AVE & N 22ND ST,,39.972568,-82.971234,,,,,,0
MOUMIAW,1678,MOUNT VERNON AVE & MIAMI AVE,,39.972024,-82.974453,,,,,,0
MOCBREW1,1681,MOCK RD & BRENTNELL AVE,0 MOCK RD & BRENTNELL BLVD,40.011508,-82.947686,,,,,,0
MARSTCW,1682,MARTIN LUTHER KING & ST CLAIR AVE,,39.970842,-82.980551,,,,,,0
SPRHAMW,1683,E SPRING ST & HAMILTON AVE,,39.9688,-82.982306,,,,,,0
CLEHOMS,1686,CLEVELAND AVE & HOME ACRE DR,,40.098294,-82.950155,,,,,,0
NEIHUBN,1691,NEIL AVE & W HUBBARD AVE,,39.978292,-83.01119,,,,,,0
NEI1STN,1692,NEIL AVE & W 1ST AVE,,39.980278,-83.011604,,,,,,0
NEI3RDN,1693,NEIL AVE & W 3RD AVE,,39.98355,-83.01225,,,,,,0
NEI4THN,1694,NEIL AVE & W 4TH AVE,,39.985367,-83.012615,,,,,,0
NEI5THN,1695,NEIL AVE & W 5TH AVE,,39.98716,-83.012959,,,,,,0
NEIOPPS,1702,NEIL AVE & W 11TH AVE,,39.995308,-83.014715,,,,,,0
NEI8THN,1706,NEIL AVE & W 8TH AVE,,39.992315,-83.013973,,,,,,0
NEI7THS,1707,NEIL AVE & W 7TH AVE,,39.989553,-83.013617,,,,,,0
NEI5THS,1708,NEIL AVE & W 5TH AVE,,39.987521,-83.013213,,,,,,0
NEI4THS,1709,NEIL AVE & W 4TH AVE,,39.985749,-83.012868,,,,,,0
NEI2NDS,1710,NEIL AVE & W 2ND AVE,,39.982199,-83.012174,,,,,,0
NEIWILS,1711,NEIL AVE & WILBER AVE,,39.979517,-83.011644,,,,,,0
KIMMERE,1712,KIMBERLY PKWY N & MERCEDES LN,,39.926107,-82.886452,,,,,,0
11TINDE,1717,E 11TH AVE & INDIANOLA AVE,,39.994524,-83.002614,,,,,,0
11T4THE,1719,E 11TH AVE & N 4TH ST,,39.994369,-82.999378,,,,,,0
11TESSE,1722,E 11TH AVE & ESSEX AVE,,39.993875,-82.987243,,,,,,0
HAM17TN,1724,HAMILTON AVE & E 17TH AVE,,40.000858,-82.979849,,,,,,0
HAMDUXN,1729,HAMILTON AVE & DUXBERRY AVE,,40.009025,-82.979308,,,,,,0
HAMCLIN,1730,HAMILTON AVE & CLINTON ST,,40.011975,-82.979106,,,,,,0
MCGHUDN,1732,MCGUFFEY RD & E HUDSON ST,,40.014765,-82.981373,,,,,,0
MCGBRIN,1733,MCGUFFEY RD & BRIARWOOD AVE,MCGUFFEY RD & REPUBLIC AVE,40.016961,-82.981378,,,,,,0
MCGOPPN,1734,MCGUFFEY RD & GENESSEE AVE,,40.019499,-82.981438,,,,,,0
MCGABEN,1735,MCGUFFEY RD & ABERDEEN AVE,,40.021286,-82.981474,,,,,,0
MCGWEBN,1736,MCGUFFEY RD & E WEBER RD,,40.023274,-82.981392,,,,,,0
MCGDELN,1737,MCGUFFEY RD & DELNO AVE,,40.025763,-82.981144,,,,,,0
MCGWELN,1738,MCGUFFEY RD & WELDON AVE,,40.027556,-82.980963,,,,,,0
MCGNORN,1739,MCGUFFEY RD & E NORTH BROADWAY,,40.030122,-82.980698,,,,,,0
MCGOAKN,1740,MCGUFFEY RD & OAKLAND PARK AVE,,40.031606,-82.980545,,,,,,0
OAKATWW,1742,OAKLAND PARK AVE & ATWOOD TERRACE,,40.032323,-82.983821,,,,,,0
OAKHIAW,1743,OAKLAND PARK AVE & HIAWATHA ST,OAKLAND PARK AVE & OSCEOLA DR,40.032441,-82.98605,,,,,,0
OAKMAIW,1744,OAKLAND PARK AVE & MAIZE RD,,40.032568,-82.989142,,,,,,0
MAIURAN,1745,MAIZE RD & URANA AVE,,40.035596,-82.989262,,,,,,0
MAINORTN,1748,MAIZE RD & NORTHRIDGE RD,,40.041603,-82.988754,,,,,,0
OAKKARW,1750,OAKLAND PARK AVE & KARL RD,,40.032031,-82.977934,,,,,,0
KARHUYN,1751,KARL RD & HUY RD,,40.035553,-82.977851,,,,,,0
KARPAUN,1752,KARL RD & PAULINE AVE,,40.03776,-82.977668,,,,,,0
KARACTN,1753,KARL RD & ACTON RD,,40.039683,-82.977487,,,,,,0
GEODELN,1755,GEORGESVILLE RD & INDUSTRIAL MILE,,39.944885,-83.11136,,,,,,0
5THARLE,1756,W 5TH AVE & ARLINGTON AVE,,39.989416,-83.060659,,,,,,0
MAINORN,1759,MAIZE RD & NORRIS DR,,40.044445,-82.988551,,,,,,0
MAICOON,1760,MAIZE RD & E COOKE RD,,40.047422,-82.988297,,,,,,0
MAIHILN,1761,MAIZE RD & HILLSDALE DR,,40.050869,-82.988035,,,,,,0
MAIGARN,1763,MAIZE RD & GARDEN RD,,40.054621,-82.987734,,,,,,0
MAISHAN,1764,MAIZE RD & SHANLEY DR,,40.056703,-82.987551,,,,,,0
MAIMORS,1767,MAIZE RD & MORSE RD,,40.059919,-82.987459,,,,,,0
KARNORN,1771,KARL RD & NORTHLAND PARK AVE,,40.057752,-82.976375,,,,,,0
MAIGARS,1781,MAIZE RD & GARDEN RD,,40.054528,-82.987908,,,,,,0
MAICARBS,1782,MAIZE RD & CARBONE DR,,40.051938,-82.988084,,,,,,0
MAICOOS,1784,MAIZE RD & E COOKE RD,,40.047925,-82.988417,,,,,,0
MAINORS,1785,MAIZE RD & NORRIS DR,,40.044499,-82.988686,,,,,,0
MAIZEBS,1789,MAIZE RD & ZEBULON AVE,,40.038838,-82.989135,,,,,,0
MAIURAS,1791,MAIZE RD & URANA AVE,,40.035212,-82.989428,,,,,,0
MAIDUNS,1792,MAIZE RD & DUNEDIN,MAIZE RD & DUNEDIN RD,40.0333,-82.989586,,,,,,0
OAKOSCE,1793,OAKLAND PARK AVE & OSCEOLA DR,,40.0324,-82.987982,,,,,,0
OAKATWE,1795,OAKLAND PARK AVE & ATWOOD TERRACE,,40.032227,-82.984206,,,,,,0
MOUHIGW1,1797,E MOUND ST & S HIGH ST,0 E MOUND ST & S HIGH ST,39.954887,-82.999143,,,,,,0
KARACTS,1803,KARL RD & ACTON RD,,40.039345,-82.977661,,,,,,0
KARCARS,1804,KARL RD & CAROLYN AVE,,40.037045,-82.977859,,,,,,0
KARURAS,1805,KARL RD & URANA AVE,,40.03468,-82.978056,,,,,,0
KAROAKS,1806,KARL RD & OAKLAND PARK AVE,,40.032382,-82.97825,,,,,,0
MCGOAKS,1807,MCGUFFEY RD & OAKLAND PARK AVE,,40.031479,-82.980703,,,,,,0
MCGNORS,1808,MCGUFFEY RD & E NORTH BROADWAY,,40.030041,-82.980835,,,,,,0
MCGWELS,1809,MCGUFFEY RD & WELDON AVE,,40.027801,-82.981064,,,,,,0
MCGCOMS,1810,MCGUFFEY RD & E COMO AVE,,40.025701,-82.981291,,,,,,0
MCGWEBS,1811,MCGUFFEY RD & E WEBER RD,,40.023662,-82.981499,,,,,,0
MCGABES,1812,MCGUFFEY RD & ABERDEEN AVE,,40.021554,-82.981608,,,,,,0
MCGGENS,1813,MCGUFFEY RD & GENESSEE AVE,,40.019182,-82.98159,,,,,,0
MCGBRIS,1814,MCGUFFEY RD & BRIARWOOD AVE,0 MCGUFFEY RD & REPUBLIC AVE,40.016746,-82.981579,,,,,,0
MCGCLIS,1816,MCGUFFEY RD & CLINTON ST,,40.012324,-82.981593,,,,,,0
HAMDUXS,1818,HAMILTON AVE & DUXBERRY AVE,,40.008877,-82.979448,,,,,,0
HAM21SS,1820,HAMILTON AVE & E 21ST AVE,,40.004048,-82.979763,,,,,,0
11TESSW,1825,E 11TH AVE & ESSEX AVE,,39.994007,-82.987683,,,,,,0
KAROAKN,1827,KARL RD & OAKLAND PARK AVE,,40.032305,-82.97813,,,,,,0
11TGRAW,1829,E 11TH AVE & N GRANT AVE,,39.994324,-82.995525,,,,,,0
CLELEHS,1835,CLEVELAND AVE & LEHNER RD,,40.052279,-82.953688,,,,,,0
CLEORMS,1836,CLEVELAND AVE & ORMOND AVE,,40.046914,-82.956311,,,,,,0
BRELEON,1842,BRENTNELL AVE & LEONARD AVE,,39.988181,-82.950104,,,,,,0
BREWOON,1843,BRENTNELL AVE & WOODWARD AVE,,39.991938,-82.949824,,,,,,0
BRE1257N,1844,1257 BRENTNELL AVE,,39.993947,-82.949665,,,,,,0
BRELISN,1845,BRENTNELL AVE & LISA DR,,39.996483,-82.949456,,,,,,0
BREHOLN,1847,BRENTNELL AVE & HOLT AVE,,39.999967,-82.949173,,,,,,0
BREARGN,1849,BRENTNELL AVE & ARGYLE DR,,40.004023,-82.948681,,,,,,0
BREMIDN,1850,BRENTNELL AVE & MIDDLEHURST DR,,40.006189,-82.948205,,,,,,0
CAS10TS,1853,N CASSADY AVE & E 10TH AVE,,39.989626,-82.930662,,,,,,0
BREDAWN,1859,BRENTNELL AVE & DAWNLIGHT AVE,,40.012122,-82.947678,,,,,,0
BREMARN,1860,BRENTNELL AVE & MARCIA DR,,40.014678,-82.947925,,,,,,0
MYRBREW,1861,MYRTLE AVE & BRENTNELL AVE,,40.016387,-82.948213,,,,,,0
AGLPENW,1867,AGLER RD & PENDLETON PL,,40.021088,-82.926409,,,,,,0
HUDDELW,1869,E HUDSON ST & DELBERT RD,,40.013375,-82.959123,,,,,,0
MAIBRIW,1875,E MAIN ST & BRIARCLIFF RD,,39.955191,-82.810941,,,,,,0
LIVQUAW,1879,E LIVINGSTON AVE & QUARRY RIDGE DR,,39.94309,-82.840758,,,,,,0
BREMYRS,1883,BRENTNELL AVE & MYRTLE AVE,,40.016027,-82.947893,,,,,,0
BREMARS,1884,BRENTNELL AVE & MARCIA DR,,40.014159,-82.948257,,,,,,0
BREMOCS,1885,BRENTNELL AVE & MOCK RD,0 BRENTNELL BLVD & S SOUDER AVE,40.012008,-82.947852,,,,,,0
BREDELS,1892,BRENTNELL AVE & DELAVAN DR,,40.009921,-82.948037,,,,,,0
BREMIDS,1893,BRENTNELL AVE & MIDDLEHURST DR,,40.006493,-82.948324,,,,,,0
BREARGS,1894,BRENTNELL AVE & ARGYLE DR,,40.004002,-82.948864,,,,,,0
BREHOLS,1896,BRENTNELL AVE & HOLT AVE,,40.00024,-82.949334,,,,,,0
BREORIS,1897,BRENTNELL AVE & ORIOLE PL,,39.99766,-82.949488,,,,,,0
BRE125S,1899,1257 BRENTNELL AVE,,39.994016,-82.949812,,,,,,0
BREWOOS,1900,BRENTNELL AVE & WOODWARD AVE,,39.992036,-82.949948,,,,,,0
BRELEOS,1901,BRENTNELL AVE & LEONARD AVE,,39.988061,-82.95025,,,,,,0
LIV4THE,1910,E LIVINGSTON AVE & MACON ALY,,39.952582,-82.992868,,,,,,0
LIV6THE,1911,E LIVINGSTON AVE & S 6TH ST,,39.952464,-82.990578,,,,,,0
LIVGRANE,1912,E LIVINGSTON AVE & S GRANT AVE,,39.95238,-82.988663,,,,,,0
LIVKELW,1913,E LIVINGSTON AVE & KELTON AVE,,39.949246,-82.959852,,,,,,0
LIVPARE,1914,E LIVINGSTON AVE & PARSONS AVE,,39.95211,-82.98277,,,,,,0
LIVANNE,1915,E LIVINGSTON AVE & ANN ST,,39.951533,-82.980465,,,,,,0
LIV18TE,1916,E LIVINGSTON AVE & S 18TH ST,,39.950876,-82.978123,,,,,,0
LIVCARE,1917,E LIVINGSTON AVE & CARPENTER ST,,39.949987,-82.97577,,,,,,0
LIV22NE,1918,E LIVINGSTON AVE & S 22ND ST,,39.949746,-82.972636,,,,,,0
LIVCHAE,1920,E LIVINGSTON AVE & S CHAMPION AVE,,39.949637,-82.970376,,,,,,0
LIVWILE,1921,E LIVINGSTON AVE & WILSON AVE,,39.949499,-82.967531,,,,,,0
LIVSTUE,1922,E LIVINGSTON AVE & STUDER AVE,,39.949341,-82.964215,,,,,,0
LIVKELE,1925,E LIVINGSTON AVE & KELTON AVE,,39.949081,-82.958999,,,,,,0
CLEMAINN,1926,CLEVELAND AVE & W MAIN ST,0 S CLEVELAND AVE & N CLEVELAND AVE,40.124342,-82.948069,,,,,,0
LIVBULE,1928,E LIVINGSTON AVE & BULEN AVE,,39.948717,-82.951593,,,,,,0
LIVRHOE,1929,E LIVINGSTON AVE & RHOADS AVE,,39.948615,-82.94953,,,,,,0
LIVMEME,1930,E LIVINGSTON AVE & MEMORY LN N,,39.948469,-82.946794,,,,,,0
LIVCOLE,1933,E LIVINGSTON AVE & COLLEGE AVE,,39.947926,-82.936419,,,,,,0
LIVCASE,1935,E LIVINGSTON AVE & S CASSINGHAM RD,,39.94776,-82.93288,,,,,,0
LIVROOE,1937,E LIVINGSTON AVE & S ROOSEVELT AVE,,39.94752,-82.928506,,,,,,0
LIVBROE1,1940,E LIVINGSTON AVE & BROWNING AVE,,39.947193,-82.922477,,,,,,0
LIVWELE,1941,E LIVINGSTON AVE & WELLESLEY RD,,39.947053,-82.919713,,,,,,0
LIVKELE1,1942,E LIVINGSTON AVE & S KELLNER RD,,39.946922,-82.917413,,,,,,0
LIVJAME,1943,E LIVINGSTON AVE & S JAMES RD,,39.946781,-82.914972,,,,,,0
LIVZETE,1945,E LIVINGSTON AVE & ZETTLER RD,,39.946517,-82.910144,,,,,,0
LIVBARE,1946,E LIVINGSTON AVE & BARNETT RD,,39.946312,-82.906059,,,,,,0
LIVCUNE,1947,E LIVINGSTON AVE & CUNARD RD,,39.94606,-82.901894,,,,,,0
LIVCOUE,1948,E LIVINGSTON AVE & COURTRIGHT RD,,39.945771,-82.896418,,,,,,0
LIVBEEE,1949,E LIVINGSTON AVE & BEECHWOOD RD,,39.945653,-82.894211,,,,,,0
LIVVILE,1950,E LIVINGSTON AVE & VILARDO LN,,39.945503,-82.89169,,,,,,0
LIVYEAE,1951,E LIVINGSTON AVE & S YEARLING RD,,39.94529,-82.887862,,,,,,0
LIVBURE,1952,E LIVINGSTON AVE & BURLINGTON AVE,,39.945022,-82.883296,,,,,,0
LIVGRAE,1953,E LIVINGSTON AVE & GRATTAN RD,,39.944832,-82.879774,,,,,,0
LIVHAME,1954,E LIVINGSTON AVE & S HAMILTON RD,,39.944647,-82.876709,,,,,,0
LIVSHAE,1956,E LIVINGSTON AVE & SHADY LANE RD,,39.944362,-82.871636,,,,,,0
MAISHAE,1962,E MAIN ST & SHADY LANE RD,,39.955218,-82.870853,,,,,,0
MAICOUE,1963,E MAIN ST & COUNTRY CLUB RD,,39.955121,-82.867501,,,,,,0
LIVCOUNW,1970,E LIVINGSTON AVE & COUNTRY CLUB RD,,39.944344,-82.868668,,,,,,0
LIVSHAW,1971,E LIVINGSTON AVE & SHADY LANE RD,,39.944474,-82.871041,,,,,,0
LIVHAMW,1973,E LIVINGSTON AVE & S HAMILTON RD,0 E LIVINGSTON AVE & WESTPHAL AVE,39.945,-82.879853,,,,,,0
LIVWESW,1975,E LIVINGSTON AVE & WESTPHAL AVE,,39.945181,-82.883452,,,,,,0
LIVYEAW,1976,E LIVINGSTON AVE & S YEARLING RD,,39.945396,-82.887141,,,,,,0
LIVELDW,1977,E LIVINGSTON AVE & ELDERWOOD AVE,,39.94565,-82.891513,,,,,,0
LIVBEEW,1978,E LIVINGSTON AVE & BEECHWOOD RD,,39.94583,-82.894819,,,,,,0
LIVCOURW,1979,E LIVINGSTON AVE & COURTRIGHT RD,,39.945984,-82.897582,,,,,,0
LIVRANW,1980,E LIVINGSTON AVE & RAND AVE,,39.946214,-82.901942,,,,,,0
LIVBARW,1983,E LIVINGSTON AVE & BARNETT RD,,39.946455,-82.906055,,,,,,0
LIVHAMW1,1984,E LIVINGSTON AVE & S HAMPTON RD,,39.946755,-82.911858,,,,,,0
LIVJAMW,1985,E LIVINGSTON AVE & S JAMES RD,,39.946932,-82.915257,,,,,,0
LIVKENW,1986,E LIVINGSTON AVE & KENILWORTH PL,,39.947098,-82.918575,,,,,,0
LIVVERW,1990,E LIVINGSTON AVE & VERNON RD,,39.947688,-82.929326,,,,,,0
LIVMONW,1991,E LIVINGSTON AVE & MONTROSE AVE,,39.947838,-82.932096,,,,,,0
FIS1247W,1992,1247 FISHINGER RD,,40.023663,-83.045965,,,,,,0
LIVCOLW,1994,E LIVINGSTON AVE & COLLEGE AVE,,39.948101,-82.936901,,,,,,0
KIMBURE,1995,KIMBERLY PKWY N & BURGANDY LN,,39.922975,-82.893296,,,,,,0
LIVMAYW,1996,E LIVINGSTON AVE & MAYFIELD PL,,39.948295,-82.941002,,,,,,0
LIVRHOW,1998,E LIVINGSTON AVE & RHOADS AVE,,39.948691,-82.948918,,,,,,0
LIVFAIW,1999,E LIVINGSTON AVE & FAIRWOOD AVE,,39.948928,-82.953394,,,,,,0
LIVLILW,2002,E LIVINGSTON AVE & LILLEY AVE,,39.949148,-82.957908,,,,,,0
LIVLOCW,2005,E LIVINGSTON AVE & LOCKBOURNE RD,,39.949392,-82.962846,,,,,,0
LIVWILW,2006,E LIVINGSTON AVE & WILSON AVE,,39.949613,-82.967516,,,,,,0
LIVCHAW,2008,E LIVINGSTON AVE & S CHAMPION AVE,,39.949748,-82.970345,,,,,,0
LIVOHIW,2009,E LIVINGSTON AVE & S OHIO AVE,,39.949822,-82.971857,,,,,,0
LIVANNW,2012,E LIVINGSTON AVE & ANN ST,,39.951749,-82.980546,,,,,,0
LIVPARW,2013,E LIVINGSTON AVE & PARSONS AVE,,39.95232,-82.983164,,,,,,0
LIVMOHW,2016,E LIVINGSTON AVE & MOHAWK ST,,39.952709,-82.99312,,,,,,0
FUL3RDW,2017,E FULTON ST & S 3RD ST,,39.953864,-82.996165,,,,,,0
FULHIGW,2018,E FULTON ST & S HIGH ST,,39.953592,-82.998468,,,,,,0
BRYRHOW,2036,BRYDEN RD & RHOADS AVE,,39.960125,-82.949884,,,,,,0
BRYFAIW,2041,BRYDEN RD & FAIRWOOD AVE,,39.960189,-82.952495,,,,,,0
TOWWASW,2055,E TOWN ST & S WASHINGTON AVE,,39.9604,-82.986756,,,,,,0
TOWGRAE,2065,E TOWN ST & S GRANT AVE,,39.959899,-82.989878,,,,,,0
TOWWASE,2066,E TOWN ST & S WASHINGTON AVE,,39.960286,-82.986557,,,,,,0
TOWLESE,2067,E TOWN ST & LESTER DR,,39.96061,-82.983604,,,,,,0
BRYPARE,2068,BRYDEN RD & PARSONS AVE,,39.960597,-82.981402,,,,,,0
BRYMONE,2069,BRYDEN RD & S MONROE AVE,,39.96055,-82.978672,,,,,,0
BRY18TE,2070,BRYDEN RD & S 18TH ST,,39.960503,-82.975626,,,,,,0
BRYCHAE,2073,BRYDEN RD & S CHAMPION AVE,,39.960389,-82.968982,,,,,,0
BRYWILE,2074,BRYDEN RD & WILSON AVE,,39.960347,-82.966618,,,,,,0
BRYOPPE,2075,BRYDEN RD & KENDALL PL,,39.960287,-82.962925,,,,,,0
BRYMILE,2076,BRYDEN RD & MILLER AVE,,39.960242,-82.960229,,,,,,0
BRYKELE,2077,BRYDEN RD & KELTON AVE,,39.960211,-82.957794,,,,,,0
BRYMORE,2078,BRYDEN RD & MORRISON AVE,,39.960142,-82.955148,,,,,,0
BRYFAIE,2079,BRYDEN RD & FAIRWOOD AVE,,39.96009,-82.952904,,,,,,0
BRYMORW,2082,BRYDEN RD & MORRISON AVE,,39.960251,-82.954738,,,,,,0
BRYKELW,2083,BRYDEN RD & KELTON AVE,,39.960316,-82.958289,,,,,,0
BRYMILW,2084,BRYDEN RD & MILLER AVE,,39.960349,-82.960281,,,,,,0
BRYALTW,2085,BRYDEN RD & LOEFFLER AVE,,39.960403,-82.963271,,,,,,0
BRYWILW,2086,BRYDEN RD & WILSON AVE,,39.960463,-82.966225,,,,,,0
BRYCHAW,2087,BRYDEN RD & S CHAMPION AVE,,39.960494,-82.969013,,,,,,0
BRYOHIW,2088,BRYDEN RD & S OHIO AVE,,39.960537,-82.970891,,,,,,0
BRYMONW,2091,BRYDEN RD & S MONROE AVE,,39.960677,-82.978813,,,,,,0
BRYPARW,2092,BRYDEN RD & PARSONS AVE,,39.960724,-82.981644,,,,,,0
TOWLESW,2093,E TOWN ST & LESTER DR,,39.960763,-82.983454,,,,,,0
FREANNE,2110,FREBIS AVE & ANN ST,,39.935337,-82.981334,,,,,,0
FRE18TE,2111,FREBIS AVE & S 18TH ST,,39.935206,-82.978535,,,,,,0
FRESTUE,2116,FREBIS AVE & STUDER AVE,,39.934572,-82.965231,,,,,,0
LOCSHES,2117,LOCKBOURNE RD & SHELDON AVE,,39.932993,-82.964624,,,,,,0
LOCMARS,2118,LOCKBOURNE RD & E MARKISON AVE,,39.930504,-82.96483,,,,,,0
LOCSMIS,2119,LOCKBOURNE RD & SMITH RD,,39.92734,-82.96508,,,,,,0
LOCREES,2120,LOCKBOURNE RD & REEB AVE,,39.924354,-82.965354,,,,,,0
LOC234S,2123,2341 LOCKBOURNE RD,,39.916746,-82.965949,,,,,,0
KOEACRE,2124,1130 KOEBEL RD,1130 KOEBEL RD & LOCKBOURNE RD,39.912571,-82.965484,,,,,,0
KOEEDSLE,2126,KOEBEL & EDSEL AVE,KOEBEL RD & EDSEL AVE,39.912313,-82.960481,,,,,,0
KOEFAIE,2127,KOEBEL RD & FAIRWOOD AVE,,39.912145,-82.957117,,,,,,0
FAIFABS,2128,FAIRWOOD AVE & FABER AVE,,39.908924,-82.957155,,,,,,0
FAIWATS,2130,FAIRWOOD AVE & WATKINS RD,,39.904988,-82.957444,,,,,,0
NAG6THE,2137,E NAGHTEN ST & N 6TH ST,289 E NAGHTEN ST & N 6TH ST,39.968627,-82.993035,,,,,,0
FAIWATN,2139,FAIRWOOD AVE & WATKINS RD,,39.904649,-82.957347,,,,,,0
FAIFABN,2140,FAIRWOOD AVE & FABER AVE,,39.908535,-82.957028,,,,,,0
KOEFAIW,2141,KOEBEL RD & FAIRWOOD AVE,,39.912235,-82.957165,,,,,,0
SAICLEN,2143,ST ANNS W SVC RD & ST ANNS #1 ENT,,40.113474,-82.947501,,,,,,0
LOCMARN,2145,LOCKBOURNE RD & MARION RD,,39.923086,-82.96524,,,,,,0
LOCINNN,2146,LOCKBOURNE RD & E INNIS AVE,,39.925153,-82.965124,,,,,,0
LOCSMIN,2147,LOCKBOURNE RD & SMITH RD,,39.927354,-82.964936,,,,,,0
LOCMOLN,2149,LOCKBOURNE RD & MOLER RD,,39.93251,-82.964527,,,,,,0
FRESTUW,2150,FREBIS AVE & STUDER AVE,,39.934698,-82.965863,,,,,,0
FREOAKW,2152,FREBIS AVE & OAKWOOD AVE,,39.934883,-82.969789,,,,,,0
FREOHIW,2153,FREBIS AVE & S OHIO AVE,,39.935034,-82.972775,,,,,,0
FREGILW,2154,FREBIS AVE & GILBERT ST,,39.935152,-82.975271,,,,,,0
FRE18TW,2155,FREBIS AVE & S 18TH ST,,39.935306,-82.978521,,,,,,0
FREANNW,2156,FREBIS AVE & ANN ST,,39.935443,-82.981373,,,,,,0
FREPARW,2157,FREBIS AVE & PARSONS AVE,,39.935536,-82.983382,,,,,,0
KIMCOUE,2167,KIMBERLY PKWY N & COURTRIGHT RD,,39.921481,-82.89636,,,,,,0
LONTALE,2171,E LONG ST & TALMADGE AVE,,39.967372,-82.979447,,,,,,0
LON17TE,2172,E LONG ST & N 17TH ST,,39.967731,-82.976765,,,,,,0
LON20TE,2173,E LONG ST & N 20TH ST,,39.968025,-82.97379,,,,,,0
LONOHIE,2175,E LONG ST & N OHIO AVE,,39.968419,-82.970112,,,,,,0
LONCHAE,2176,E LONG ST & GOVERNOR PL,,39.968601,-82.968591,,,,,,0
LONWINE,2177,E LONG ST & WINNER AVE,,39.96888,-82.966175,,,,,,0
GRESHEW,2184,GREENWAY AVE S & SHERBOURNE DR,,39.971629,-82.95006,,,,,,0
GREGREW,2185,GREENWAY AVE & GREENWAY AVE S,,39.973629,-82.952466,,,,,,0
LONWINW,2192,E LONG ST & WINNER AVE,,39.968993,-82.966308,,,,,,0
LONOHIW,2194,E LONG ST & N OHIO AVE,,39.968598,-82.969805,,,,,,0
LON20TW,2195,E LONG ST & N 20TH ST,,39.968198,-82.973344,,,,,,0
LON18TW,2196,E LONG ST & N 18TH ST,,39.967928,-82.975719,,,,,,0
LONMONW,2197,E LONG ST & N MONROE AVE,,39.967571,-82.978851,,,,,,0
HIGBLENS,2201,S HIGH ST & W BLENKNER ST,,39.951772,-82.998746,,,,,,0
HIGSYCS,2202,S HIGH ST & W SYCAMORE ST,,39.948724,-82.998147,,,,,,0
HIGFRANS,2203,S HIGH ST & W FRANKFORT ST,,39.947241,-82.997858,,,,,,0
HIGWHIS,2205,S HIGH ST & W WHITTIER ST,,39.944223,-82.997267,,,,,,0
HIGSTES,2206,S HIGH ST & STEWART AVE,,39.942096,-82.996857,,,,,,0
HIGGRES,2207,S HIGH ST & GREENLAWN AVE,,39.93921,-82.9963,,,,,,0
4THJENS,2212,S 4TH ST & E JENKINS AVE,,39.933129,-82.992823,,,,,,0
4THMARS,2213,S 4TH ST & E MARKISON AVE,,39.931147,-82.992965,,,,,,0
4THWOOS,2214,S 4TH ST & E WOODROW AVE,,39.927723,-82.993238,,,,,,0
4THREES,2215,S 4TH ST & REEB AVE,,39.924943,-82.993457,,,,,,0
HIG210S,2218,2101 S HIGH ST,,39.91941,-82.995505,,,,,,0
HIGDERS,2221,S HIGH ST & DERING AVE,0 S HIGH ST & DERING AVE,39.912668,-82.995451,,,,,,0
HIGCASS,2223,S HIGH ST & W CASTLE RD,,39.907428,-82.99547,,,,,,0
HIGALCS,2224,S HIGH ST & W ALCOTT RD,,39.905666,-82.995471,,,,,,0
HIGSOUGS,2226,S HIGH ST & SOUTHGATE DR,,39.901091,-82.995468,,,,,,0
HIGRUMS,2227,S HIGH ST & RUMSEY RD,,39.894288,-82.995632,,,,,,0
HIGWILS,2228,S HIGH ST & WILLIAMS RD,,39.892059,-82.996579,,,,,,0
HIG365N,2234,3650 S HIGH ST,,39.886945,-82.998628,,,,,,0
HIGWILN1,2235,S HIGH ST & WILLIAMS RD,,39.892144,-82.996298,,,,,,0
HIGRUMN,2236,S HIGH ST & RUMSEY RD,,39.894545,-82.99532,,,,,,0
HIGSOUGN,2237,S HIGH ST & SOUTHGATE DR,,39.901521,-82.995214,,,,,,0
HIGSCHVN,2239,S HIGH ST & SCHRYVER RD,,39.903941,-82.995231,,,,,,0
HIGALCN,2240,S HIGH ST & E ALCOTT RD,S HIGH ST & W ALCOTT RD,39.905892,-82.995237,,,,,,0
HIGCASN,2241,S HIGH ST & E CASTLE RD,,39.907473,-82.99525,,,,,,0
HIGDELN,2243,S HIGH ST & DELRAY RD,,39.910792,-82.99525,,,,,,0
HIG205N,2245,2050 S HIGH ST,2050 Unit KINGSTON,39.919658,-82.995279,,,,,,0
HOSHIGE,2246,HOSACK ST & S HIGH ST,,39.922754,-82.994753,,,,,,0
4THINNN,2248,S 4TH ST & E INNIS AVE,,39.926067,-82.993243,,,,,,0
4THWELN,2249,S 4TH ST & E WELCH AVE,,39.930244,-82.992904,,,,,,0
4THSOUN,2250,S 4TH ST & SOUTHWOOD AVE,,39.932194,-82.992753,,,,,,0
HIGMITN,2254,S HIGH ST & E MITHOFF ST,,39.938505,-82.996029,,,,,,0
HIGWHIN,2257,S HIGH ST & E WHITTIER ST,,39.944217,-82.997042,,,,,,0
HIGCOLN,2258,S HIGH ST & E COLUMBUS ST,0 S HIGH ST & E KOSSUTH ST,39.946036,-82.997378,,,,,,0
HIGSYCN,2259,S HIGH ST & E SYCAMORE ST,,39.948721,-82.997922,,,,,,0
MAIGRANE,2266,E MAIN ST & S GRANT AVE,,39.957245,-82.989172,,,,,,0
MAIWASE,2267,E MAIN ST & S WASHINGTON AVE,,39.957588,-82.986156,,,,,,0
MAIALLE,2268,E MAIN ST & ALLEN AVE,,39.957971,-82.979578,,,,,,0
MAIGILE,2270,E MAIN ST & GILBERT ST,,39.957845,-82.973671,,,,,,0
MAIOHIE,2271,E MAIN ST & S OHIO AVE,,39.957794,-82.970993,,,,,,0
MAICHAE,2272,E MAIN ST & S CHAMPION AVE,,39.957753,-82.969033,,,,,,0
MAIKIME,2275,E MAIN ST & KIMBALL PL,,39.957657,-82.96379,,,,,,0
MAIMILLE,2276,E MAIN ST & MILLER AVE,,39.957619,-82.960893,,,,,,0
MAIKELTE,2277,E MAIN ST & KELTON AVE,,39.957587,-82.958854,,,,,,0
MAISEYE,2279,E MAIN ST & SEYMOUR AVE,,39.957468,-82.954631,,,,,,0
MAIBULE,2280,E MAIN ST & BULEN AVE,,39.957399,-82.951334,,,,,,0
MAIRHOE,2281,E MAIN ST & RHOADS AVE,,39.95736,-82.948969,,,,,,0
MAIPARE,2283,E MAIN ST & S PARKVIEW AVE,,39.957207,-82.941985,,,,,,0
MAIDREE,2285,E MAIN ST & S DREXEL AVE,,39.957103,-82.937835,,,,,,0
MAIEUCE,2287,E MAIN ST & EUCLAIRE AVE,,39.95699,-82.933552,,,,,,0
MAIMONE,2288,E MAIN ST & MONTROSE AVE,,39.956922,-82.930727,,,,,,0
MAIROOE,2289,E MAIN ST & S ROOSEVELT AVE,,39.956836,-82.927526,,,,,,0
MAIBROE,2291,E MAIN ST & S BROADLEIGH RD,,39.956718,-82.922844,,,,,,0
EASOFFE,2292,EASTGREEN BLVD & OFFICEVIEW PL,,39.938296,-82.829369,,,,,,0
MAIBROE1,2293,E MAIN ST & BROOKSIDE DR,,39.956578,-82.917553,,,,,,0
MAIJAME,2294,E MAIN ST & S JAMES RD,,39.956515,-82.915038,,,,,,0
MAIWEYE,2296,E MAIN ST & S WEYANT AVE,,39.956327,-82.908654,,,,,,0
MAIBARE,2297,E MAIN ST & BARNETT RD,,39.956227,-82.905572,,,,,,0
MAIMAPE,2298,E MAIN ST & MAPLEWOOD AVE,,39.956158,-82.903244,,,,,,0
MAICOLWE,2299,E MAIN ST & COLLINGWOOD AVE,,39.956092,-82.900998,,,,,,0
MAIKARE,2302,E MAIN ST & KARL ST,,39.955762,-82.889033,,,,,,0
MAIYEAE,2303,E MAIN ST & S YEARLING RD,,39.955679,-82.886672,,,,,,0
MAIWESE1,2305,E MAIN ST & WESTPHAL AVE,,39.955562,-82.882524,,,,,,0
MAIBERE,2306,E MAIN ST & BERNHARD RD,,39.955496,-82.880056,,,,,,0
MAIHAME,2307,E MAIN ST & S HAMILTON RD,,39.955398,-82.877192,,,,,,0
MAIMANE,2309,E MAIN ST & MANFELD DR,,39.954942,-82.861671,,,,,,0
MAIMANW,2313,E MAIN ST & MANFELD DR,,39.955105,-82.861952,,,,,,0
MAIHAMW,2315,E MAIN ST & S HAMILTON RD,,39.955541,-82.876401,,,,,,0
MAIBERW,2316,E MAIN ST & BERNHARD RD,,39.955657,-82.879891,,,,,,0
MAIWESW,2317,E MAIN ST & WESTPHAL AVE,,39.955706,-82.882081,,,,,,0
MAIYEAW,2319,E MAIN ST & S YEARLING RD,,39.955832,-82.886131,,,,,,0
MAIKARW,2320,E MAIN ST & KARL ST,,39.955909,-82.889028,,,,,,0
MAIROBW,2322,E MAIN ST & ROBINWOOD AVE,,39.95611,-82.896314,,,,,,0
MAICOLWW,2323,E MAIN ST & COLLINGWOOD AVE,,39.956238,-82.90038,,,,,,0
MAIMAPW,2324,E MAIN ST & MAPLEWOOD AVE,,39.956324,-82.90347,,,,,,0
MAIRUBW,2325,E MAIN ST & RUBY AVE,,39.9564,-82.906072,,,,,,0
MAIWEYW,2326,E MAIN ST & S WEYANT AVE,WEYANT LOOP SVC & E MAIN ST,39.956474,-82.908408,,,,,,0
MAIJAMW,2329,E MAIN ST & S JAMES RD,,39.956644,-82.914429,,,,,,0
MAIEASW,2331,E MAIN ST & EASTMOOR BLVD,,39.95676,-82.918595,,,,,,0
MAICHEW,2332,E MAIN ST & S CHESTERFIELD RD,,39.956827,-82.920937,,,,,,0
MAIKENW,2333,E MAIN ST & KENWICK RD,,39.956885,-82.923679,,,,,,0
MAIROOW,2334,E MAIN ST & S ROOSEVELT AVE,,39.956979,-82.927248,,,,,,0
MAIREMW,2335,E MAIN ST & S REMINGTON RD,,39.957052,-82.930138,,,,,,0
MAICASW1,2337,E MAIN ST & S CASSADY AVE,,39.957147,-82.933815,,,,,,0
MAIDREW,2338,E MAIN ST & S DREXEL AVE,,39.957246,-82.937909,,,,,,0
MAIPARKW,2340,E MAIN ST & S PARKVIEW AVE,,39.957391,-82.942165,,,,,,0
MAIRHOW,2343,E MAIN ST & RHOADS AVE,,39.957502,-82.94909,,,,,,0
MAIFAIW,2344,E MAIN ST & FAIRWOOD AVE,,39.957576,-82.952676,,,,,,0
MAIKELTW,2346,E MAIN ST & KELTON AVE,0 E MAIN ST & KELTON AVE,39.957701,-82.958203,,,,,,0
MAIMILLW,2347,E MAIN ST & MILLER AVE,,39.957744,-82.960549,,,,,,0
MAIKENW1,2348,E MAIN ST & KENDALL PL,,39.95781,-82.964219,,,,,,0
MAIWILW,2349,E MAIN ST & WILSON AVE,,39.957856,-82.966461,,,,,,0
MAICHAW,2350,E MAIN ST & S CHAMPION AVE,,39.957904,-82.969296,,,,,,0
MAIOHIW,2351,E MAIN ST & S OHIO AVE,,39.957929,-82.970702,,,,,,0
MAICARW,2353,E MAIN ST & CARPENTER ST,,39.95801,-82.974384,,,,,,0
MAIMONW,2355,E MAIN ST & S MONROE AVE,,39.958121,-82.978564,,,,,,0
MAIPARSW,2356,E MAIN ST & PARSONS AVE,,39.958164,-82.981517,,,,,,0
MAIWASW,2357,E MAIN ST & S WASHINGTON AVE,,39.957814,-82.985667,,,,,,0
RICGRAW,2359,E RICH ST & S GRANT AVE,,39.958512,-82.991372,,,,,,0
TOWDAVW,2369,W TOWN ST & S DAVIS AVE,,39.956213,-83.021285,,,,,,0
SOUSULS,2371,S SOUDER AVE & SULLIVANT AVE,,39.952862,-83.021673,,,,,,0
SOUMOUS,2373,S SOUDER AVE & THOMAS AVE,,39.950792,-83.021217,,,,,,0
MOUPRIW,2376,W MOUND ST & S PRINCETON AVE,,39.946653,-83.032798,,,,,,0
MOUCENWF,2377,W MOUND ST & CENTRAL POINT,,39.945336,-83.037631,,,,,,0
MOURYAW,2379,W MOUND ST & RYAN AVE,,39.944557,-83.040436,,,,,,0
MOUTOWW,2380,W MOUND ST & TOWNSEND AVE,,39.94359,-83.044044,,,,,,0
MOUWOOW,2381,W MOUND ST & WOODBURY AVE,,39.94297,-83.046372,,,,,,0
MOUHILW,2383,W MOUND ST & HILLTONIA AVE,,39.941948,-83.050245,,,,,,0
MOUBELW,2384,W MOUND ST & BELVIDERE AVE,,39.941361,-83.052408,,,,,,0
MOUHIGW2,2386,W MOUND ST & S HIGHLAND AVE,,39.939676,-83.05867,,,,,,0
MOUWARW,2391,W MOUND ST & S WARREN AVE,,39.939822,-83.070922,,,,,,0
MOURACE,2433,W MOUND ST & RACINE AVE,,39.939739,-83.071253,,,,,,0
MOURICE,2435,W MOUND ST & S RICHARDSON AVE,,39.939086,-83.066736,,,,,,0
MOUWAYE,2437,W MOUND ST & S WAYNE AVE,,39.938401,-83.062789,,,,,,0
MOUHIGE,2439,W MOUND ST & S HIGHLAND AVE,,39.939598,-83.058527,,,,,,0
MOUCLAE,2440,W MOUND ST & CLARENDON AVE,,39.9402,-83.056159,,,,,,0
MOUBUTE,2441,W MOUND ST & BUTLER AVE,,39.940875,-83.053769,,,,,,0
MOUWREE,2442,W MOUND ST & WREXHAM AVE,,39.941529,-83.051295,,,,,,0
MOUCLAE1,2444,W MOUND ST & CLARK AVE,,39.942554,-83.047538,,,,,,0
MOULARE,2445,W MOUND ST & LARCOMB AVE,,39.943076,-83.045511,,,,,,0
MOUEDWE,2446,W MOUND ST & EDWIN ST,,39.943726,-83.043041,,,,,,0
MOURYAE,2447,W MOUND ST & RYAN AVE,,39.944354,-83.040742,,,,,,0
MOUCENE,2448,W MOUND ST & CENTRAL POINT,,39.945194,-83.037504,,,,,,0
MOUGLENE,2451,W MOUND ST & GLENWOOD AVE,,39.947672,-83.02852,,,,,,0
MOUMOUE,2454,W MOUND ST & MOUNT CALVARY AVE,MOUND ST & MT CALVARY AVE,39.949388,-83.022234,,,,,,0
SOUMOUN,2455,S SOUDER AVE & W MOUND ST,,39.949946,-83.020939,,,,,,0
DAVCAMN,2456,S DAVIS AVE & CAMPBELL AVE,,39.951655,-83.019992,,,,,,0
DAVSULN,2457,S DAVIS AVE & SULLIVANT AVE,,39.95372,-83.020362,,,,,,0
RICGREE,2459,W RICH ST & S GREEN ST,,39.955138,-83.019531,,,,,,0
RICGRUE,2460,W RICH ST & S SKIDMORE ST,,39.955528,-83.015855,,,,,,0
RICMCDE,2462,W RICH ST & MCDOWELL ST,,39.955916,-83.012863,,,,,,0
RICSTAE,2464,W RICH ST & STARLING ST,,39.956375,-83.008919,,,,,,0
BROHOFE,2476,E BROAD ST & HOFFMAN AVE,,39.965204,-82.973972,,,,,,0
BROOHIE,2477,E BROAD ST & S OHIO AVE,,39.96562,-82.970432,,,,,,0
BROCHAE,2478,E BROAD ST & S CHAMPION AVE,0 E BROAD ST & S OHIO AVE,39.965796,-82.968986,,,,,,0
BROWILAE,2479,E BROAD ST & WILSON AVE,,39.966161,-82.965697,,,,,,0
BROLATE,2480,E BROAD ST & LATTA AVE,,39.966473,-82.962886,,,,,,0
BROFRA1E,2481,E BROAD ST & FRANKLIN PK W,,39.966775,-82.960149,,,,,,0
BROWOOE,2482,E BROAD ST & WOODLAND AVE,,39.967032,-82.957875,,,,,,0
BRONELE,2483,E BROAD ST & S NELSON RD,,39.968,-82.949106,,,,,,0
BROPARE,2484,E BROAD ST & PARK DR,,39.968475,-82.945113,,,,,,0
BROPARKE,2485,E BROAD ST & S PARKVIEW AVE,,39.96893,-82.941003,,,,,,0
BRODREE,2486,E BROAD ST & S DREXEL AVE,,39.969463,-82.93624,,,,,,0
BROCASAE,2487,E BROAD ST & S CASSADY AVE,,39.969901,-82.932366,,,,,,0
BROCASIE,2488,E BROAD ST & S CASSINGHAM RD,0 E BROAD ST & S CASSINGHAM RD,39.970149,-82.929935,,,,,,0
BROSTANE,2489,E BROAD ST & S STANWOOD RD,,39.970434,-82.927277,,,,,,0
BROMERE,2490,E BROAD ST & S MERKLE RD,,39.970753,-82.924195,,,,,,0
BROBRODE,2491,E BROAD ST & S BROADLEIGH RD,,39.970977,-82.922226,,,,,,0
BROHARDE,2492,E BROAD ST & S HARDING RD,,39.971319,-82.919001,,,,,,0
BROJAME,2494,E BROAD ST & S JAMES RD,,39.972025,-82.912556,,,,,,0
BRONAPE,2496,E BROAD ST & S NAPOLEON AVE,,39.972739,-82.905973,,,,,,0
MAIFOUNE,2497,E MAIN ST & FOUNTAIN LN,,39.954873,-82.859638,,,,,,0
BRO367E,2498,3675 E BROAD ST,,39.972963,-82.903913,,,,,,0
BROROBE,2501,E BROAD ST & ROBINWOOD AVE,,39.973759,-82.89616,,,,,,0
BROBEETE,2502,E BROAD ST & BEECHTREE RD,,39.973919,-82.894701,,,,,,0
BROBEEWE,2503,E BROAD ST & BEECHWOOD RD,0 E BROAD ST & BEECHWOOD RD,39.974129,-82.892523,,,,,,0
BRO4251E,2504,4251 E BROAD ST,,39.974602,-82.888173,,,,,,0
BROYEAE,2505,E BROAD ST & S YEARLING RD,,39.974898,-82.885105,,,,,,0
BROSANE,2507,E BROAD ST & SANTA MARIA LN,0 E BROAD ST & PARKLAWN BLVD,39.975273,-82.882306,,,,,,0
BROFAIE,2508,E BROAD ST & FAIRWAY BLVD,,39.975709,-82.877493,,,,,,0
BROHAMIE,2509,E BROAD ST & S HAMILTON RD,0 E BROAD ST & HAMILTON RD,39.97606,-82.874155,,,,,,0
BROMTCS,2513,E BROAD ST & MT CARMEL EAST HOSPITAL,0 MT CARMEL SERVICE RD & MT CARMEL EAST PATH,39.978254,-82.845426,,,,,,0
BROMIDCW,2515,E BROAD ST & MIDCLIFF DR,,39.976363,-82.872891,,,,,,0
BROHAMW,2516,E BROAD ST & N HAMILTON RD,,39.976022,-82.87601,,,,,,0
BROFAIW,2517,E BROAD ST & FAIRWAY BLVD,,39.975829,-82.877748,,,,,,0
BROYEAW,2519,E BROAD ST & N YEARLING RD,,39.975003,-82.885697,,,,,,0
BROBEEWW,2521,E BROAD ST & BEECHWOOD RD,,39.974418,-82.891418,,,,,,0
BROBEETW,2522,E BROAD ST & BEECHTREE RD,,39.974148,-82.89389,,,,,,0
BROROBW,2523,E BROAD ST & ROBINWOOD AVE,,39.973864,-82.896721,,,,,,0
BROMAPW,2525,E BROAD ST & MAPLEWOOD AVE,,39.973218,-82.902787,,,,,,0
HAMTECN,2526,S HAMILTON RD & TECH CENTER DR,,39.998506,-82.868192,,,,,,0
BROWEYW,2527,E BROAD ST & N WEYANT AVE,,39.972817,-82.906651,,,,,,0
BROHAMPW,2528,E BROAD ST & N HAMPTON RD,,39.972516,-82.909396,,,,,,0
BROHARDW,2531,E BROAD ST & N HARDING RD,,39.971446,-82.919243,,,,,,0
BROBRODW,2532,E BROAD ST & N BROADLEIGH RD,,39.971175,-82.921729,,,,,,0
BROMERW,2533,E BROAD ST & N MERKLE RD,,39.970841,-82.924734,,,,,,0
BROSTANW,2534,E BROAD ST & N STANWOOD RD,,39.97051,-82.927928,,,,,,0
BROCASIW,2535,E BROAD ST & N CASSINGHAM RD,0 E BROAD ST & N CASSINGHAM RD,39.970243,-82.930545,,,,,,0
BROCASAW,2536,E BROAD ST & N CASSADY AVE,,39.969934,-82.93334,,,,,,0
BRODREW,2537,E BROAD ST & N DREXEL AVE,,39.969393,-82.93816,,,,,,0
BROPARVW,2538,E BROAD ST & N PARKVIEW AVE,,39.968997,-82.941683,,,,,,0
BROMEAW,2539,E BROAD ST & MEADOW PARK AVE,,39.968575,-82.945477,,,,,,0
BRONELFW,2540,E BROAD ST & N NELSON RD,,39.967972,-82.95115,,,,,,0
BROWOOW,2541,E BROAD ST & WOODLAND AVE,,39.967222,-82.957926,,,,,,0
BROPARWW,2542,E BROAD ST & PARKWOOD AVE,,39.966962,-82.96029,,,,,,0
BROWINW,2544,E BROAD ST & WINNER AVE,,39.966352,-82.96567,,,,,,0
BROGOVW,2545,E BROAD ST & GOVERNOR PL,,39.965974,-82.969109,,,,,,0
BROOHIW,2546,E BROAD ST & N OHIO AVE,,39.965786,-82.970657,,,,,,0
BRO20TW,2547,E BROAD ST & N 20TH ST,,39.965381,-82.9741,,,,,,0
BRO17TW,2548,E BROAD ST & N 17TH ST,,39.964962,-82.977644,,,,,,0
BROHAMIW,2549,E BROAD ST & HAMILTON PARK,,39.964562,-82.980925,,,,,,0
HAMFAIS,2556,S HAMILTON RD & FAIRWAY BLVD,,39.973554,-82.874648,,,,,,0
HAMSANS,2557,S HAMILTON RD & SAN JOSE LN,,39.971089,-82.875534,,,,,,0
HAMSAIS,2558,S HAMILTON RD & SAINT ANN LN,,39.969562,-82.875663,,,,,,0
HAMETNS,2560,S HAMILTON RD & ETNA RD,,39.964839,-82.876109,,,,,,0
HAMRICS,2561,S HAMILTON RD & RICKENBACKER AVE,,39.962031,-82.876337,,,,,,0
HAMLANS,2562,S HAMILTON RD & LANGLEY AVE,,39.95984,-82.876524,,,,,,0
HAMWRIS,2563,S HAMILTON RD & WRIGHT AVE,,39.958243,-82.876679,,,,,,0
HAMMAIS,2564,S HAMILTON RD & E MAIN ST,,39.955782,-82.876908,,,,,,0
HAMKAEN,2569,S HAMILTON RD & KAE AVE,,39.962801,-82.876061,,,,,,0
HAMBROHN,2572,S HAMILTON RD & BROADHURST DR,,39.967716,-82.875635,,,,,,0
HAMSHAN,2573,S HAMILTON RD & SHAKER SQ,,39.969673,-82.875455,,,,,,0
HAMSANN,2574,S HAMILTON RD & SAN JOSE LN,,39.970553,-82.87536,,,,,,0
HAMFAIN,2575,S HAMILTON RD & FAIRWAY BLVD,,39.973677,-82.874415,,,,,,0
HAMSWAS,2619,N HAMILTON RD & SWANSON AVE,,39.998493,-82.868421,,,,,,0
CASCUMN,2621,CASSADY AVE & CUMBERLAND WOODS DR,,40.009756,-82.929373,,,,,,0
PARWHIN,2622,PARSONS AVE & E WHITTIER ST,0 PARSONS AVE & STANLEY AVE,39.944596,-82.982829,,,,,,0
BRODAVW,2624,W BROAD ST & N DAVIS AVE,,39.959762,-83.021483,,,,,,0
BRORODW,2626,W BROAD ST & RODGERS AVE,,39.959052,-83.027266,,,,,,0
BROYALW,2628,W BROAD ST & N YALE AVE,,39.958515,-83.03172,,,,,,0
BROCHIW,2629,W BROAD ST & CHICAGO AVE,,39.958235,-83.034022,,,,,,0
BROCENW,2631,W BROAD ST & N CENTRAL AVE,,39.957711,-83.038489,,,,,,0
BROSTEW,2632,W BROAD ST & STEVENS AVE,,39.957373,-83.041344,,,,,,0
STRHARW,2634,2096 STRINGTOWN RD,,39.878568,-83.057841,,,,,,0
BROLECW,2635,W BROAD ST & LECHNER AVE,,39.956042,-83.053535,,,,,,0
BROBELW,2636,W BROAD ST & BELLE ST,W BROAD ST & S BELLE ST,39.961257,-83.0093,,,,,,0
BROMIDLW,2637,W BROAD ST & MIDLAND AVE,,39.955803,-83.057783,,,,,,0
BROHIGW,2638,W BROAD ST & S HIGHLAND AVE,,39.95567,-83.060617,,,,,,0
BROOAKW,2639,W BROAD ST & N OAKLEY AVE,,39.955564,-83.062757,,,,,,0
BROEURW,2640,W BROAD ST & N EUREKA AVE,,39.955427,-83.065718,,,,,,0
BROOGDW,2642,W BROAD ST & N OGDEN AVE,,39.955182,-83.070966,,,,,,0
BROHAGW,2643,W BROAD ST & N HAGUE AVE,0 W BROAD ST & S HAGUE AVE,39.955024,-83.074299,,,,,,0
BROHALW,2645,W BROAD ST & HALDY AVE,,39.954778,-83.079216,,,,,,0
BROWESW,2646,W BROAD ST & N WESTMOOR AVE,,39.954665,-83.081733,,,,,,0
BROBRIW,2647,W BROAD ST & N BRINKER AVE,,39.954538,-83.084265,,,,,,0
CAS1884S,2648,1884 N CASSADY AVE,,40.0104,-82.929439,,,,,,0
BROALGE,2651,W BROAD ST & S ALGONQUIN AVE,,39.954304,-83.085414,,,,,,0
BROWESGE,2652,W BROAD ST & S WESTGATE AVE,,39.954435,-83.082543,,,,,,0
BROROYE,2654,W BROAD ST & S ROYS AVE,,39.954668,-83.077932,,,,,,0
BROHAGE,2656,W BROAD ST & S HAGUE AVE,,39.954822,-83.074309,,,,,,0
BROWARE,2657,W BROAD ST & S WARREN AVE,,39.954979,-83.071311,,,,,,0
BROBURE,2658,W BROAD ST & S BURGESS AVE,,39.955109,-83.068788,,,,,,0
BROWAYE,2660,W BROAD ST & S WAYNE AVE,0 W BROAD ST & S WAYNE AVE,39.955335,-83.064223,,,,,,0
BROHIGE,2662,W BROAD ST & S HIGHLAND AVE,,39.955496,-83.060658,,,,,,0
BROWHIE,2663,W BROAD ST & WHITETHORNE AVE,,39.955668,-83.056952,,,,,,0
BROLECE,2664,W BROAD ST & LECHNER AVE,,39.955864,-83.053095,,,,,,0
BROENTE,2666,W BROAD ST & GLENWOOD PARK,,39.956433,-83.047616,,,,,,0
BROSTEE,2667,W BROAD ST & STEVENS AVE,,39.957201,-83.041354,,,,,,0
BROCENE,2668,W BROAD ST & S CENTRAL AVE,,39.957644,-83.037744,,,,,,0
BROWESPE,2670,W BROAD ST & W PARK AVE,0 W BROAD ST & WISCONSIN AVE,39.958211,-83.033008,,,,,,0
BROGLEE,2671,W BROAD ST & S GLENWOOD AVE,,39.958556,-83.030116,,,,,,0
BROHAWE,2673,W BROAD ST & HAWKES AVE,0 W BROAD ST & HAWKES AVE,39.959095,-83.025629,,,,,,0
BRODAVE,2675,W BROAD ST & S DAVIS AVE,,39.959611,-83.021282,,,,,,0
BROSKIE,2676,W BROAD ST & S SKIDMORE ST,,39.960142,-83.016846,,,,,,0
BROMAYE,2677,W BROAD ST & S MAY AVE,,39.960441,-83.0144,,,,,,0
BROFROE,2681,W BROAD ST & S FRONT ST,,39.96188,-83.002666,,,,,,0
SOURICS,2684,S SOUDER AVE & W RICH ST,,39.955052,-83.022102,,,,,,0
HAMSIMN,2686,S HAMILTON RD & SIMPSON DR,,39.951418,-82.877238,,,,,,0
SULMARTW,2687,SULLIVANT AVE & MARTIN AVE,,39.953029,-83.022953,,,,,,0
SULAVOW,2688,SULLIVANT AVE & AVONDALE AVE,,39.95255,-83.025551,,,,,,0
SULGLEW,2690,SULLIVANT AVE & S GLENWOOD AVE,,39.951928,-83.028889,,,,,,0
SULYALW,2691,SULLIVANT AVE & S YALE AVE,,39.951523,-83.031117,,,,,,0
SULPRIW,2692,SULLIVANT AVE & S PRINCETON AVE,,39.951055,-83.033617,,,,,,0
SULCENW,2694,SULLIVANT AVE & S CENTRAL AVE,,39.950561,-83.036319,,,,,,0
SULMARW,2696,SULLIVANT AVE & MARTHA AVE,,39.94982,-83.040213,,,,,,0
SULCATW,2697,SULLIVANT AVE & CATHERINE ST,,39.94936,-83.04266,,,,,,0
SULLARW,2698,SULLIVANT AVE & LARCOMB AVE,,39.948585,-83.046775,,,,,,0
SULNASW,2700,SULLIVANT AVE & NASHOBA AVE,,39.947864,-83.050629,,,,,,0
SULWREW,2701,SULLIVANT AVE & WREXHAM AVE,,39.947396,-83.053127,,,,,,0
SULWHIW,2702,SULLIVANT AVE & WHITETHORNE AVE,,39.946867,-83.055911,,,,,,0
SULCLAW,2703,SULLIVANT AVE & CLARENDON AVE,,39.946424,-83.058307,,,,,,0
SULWAYW,2705,SULLIVANT AVE & S WAYNE AVE,,39.945467,-83.063423,,,,,,0
SULTERW,2706,SULLIVANT AVE & S TERRACE AVE,,39.944929,-83.066236,,,,,,0
SULBURW,2707,SULLIVANT AVE & S BURGESS AVE,,39.944473,-83.068734,,,,,,0
SULWARW,2708,SULLIVANT AVE & S WARREN AVE,,39.944025,-83.071081,,,,,,0
SULHAGW,2709,SULLIVANT AVE & S HAGUE AVE,,39.943768,-83.073476,,,,,,0
SULCHEW,2710,SULLIVANT AVE & CHESTERSHIRE RD,,39.943641,-83.075566,,,,,,0
SULBINW,2711,SULLIVANT AVE & BINNS BLVD,,39.94353,-83.077888,,,,,,0
SULDEXE,2720,SULLIVANT AVE & DEXTER AVE,,39.942938,-83.08799,,,,,,0
SULBRIE,2722,SULLIVANT AVE & S BRINKER AVE,,39.94313,-83.083533,,,,,,0
SULBINE,2724,SULLIVANT AVE & BINNS BLVD,,39.943373,-83.078295,,,,,,0
SULCHEE,2725,SULLIVANT AVE & CHESTERSHIRE RD,,39.943521,-83.075515,,,,,,0
SULHAGE,2726,SULLIVANT AVE & S HAGUE AVE,,39.943656,-83.072848,,,,,,0
SULOGDE,2727,SULLIVANT AVE & S OGDEN AVE,,39.944118,-83.07001,,,,,,0
SULRICE,2728,SULLIVANT AVE & S RICHARDSON AVE,,39.944707,-83.066869,,,,,,0
SULEURE,2729,SULLIVANT AVE & S EUREKA AVE,,39.945166,-83.064436,,,,,,0
SULBELE,2733,SULLIVANT AVE & BELVIDERE AVE,,39.946969,-83.054771,,,,,,0
SULHILE,2734,SULLIVANT AVE & HILLTONIA AVE,,39.947469,-83.052228,,,,,,0
SULCOLE,2735,SULLIVANT AVE & COLUMBIAN AVE,,39.94791,-83.049876,,,,,,0
SULLARE,2736,SULLIVANT AVE & LARCOMB AVE,,39.948414,-83.047163,,,,,,0
SULHELE,2737,SULLIVANT AVE & HELEN ST,,39.948981,-83.044132,,,,,,0
SULRYAE,2738,SULLIVANT AVE & RYAN AVE,,39.949445,-83.041752,,,,,,0
SULGUIE,2739,SULLIVANT AVE & S GUILFORD AVE,,39.950264,-83.037351,,,,,,0
SULDANE,2740,SULLIVANT AVE & DANA AVE,,39.950783,-83.034558,,,,,,0
SULWESE,2741,SULLIVANT AVE & WEST PARK AVE,,39.951245,-83.032102,,,,,,0
SULGLEE,2742,SULLIVANT AVE & S GLENWOOD AVE,,39.951763,-83.029284,,,,,,0
SULHAWE,2744,SULLIVANT AVE & HAWKES AVE,,39.952628,-83.024666,,,,,,0
SULSOUE,2745,SULLIVANT AVE & S SOUDER AVE,0 SULLIVANT AVE & S SOUDER AVE,39.953084,-83.021978,,,,,,0
WHIPEAE,2748,E WHITTIER ST & S PEARL ST,,39.943903,-82.996285,,,,,,0
WHI3RDE,2749,E WHITTIER ST & S 3RD ST,,39.944095,-82.994573,,,,,,0
WHIJAEE,2751,E WHITTIER ST & JAEGER ST,,39.944486,-82.990264,,,,,,0
WHIBRUE,2752,E WHITTIER ST & BRUCK ST,,39.944351,-82.987564,,,,,,0
WHIPARE,2754,E WHITTIER ST & PARSONS AVE,,39.944123,-82.983295,,,,,,0
WHIANNE,2755,E WHITTIER ST & ANN ST,,39.943996,-82.980743,,,,,,0
WHIOPPE,2756,E WHITTIER ST & CARPENTER ST,,39.943714,-82.975339,,,,,,0
WHI22NE,2757,E WHITTIER ST & S 22ND ST,,39.943613,-82.973459,,,,,,0
WHICHAE,2759,E WHITTIER ST & S CHAMPION AVE,,39.943477,-82.970701,,,,,,0
WHIWILE,2760,E WHITTIER ST & WILSON AVE,,39.943343,-82.967974,,,,,,0
WHISTUE,2761,E WHITTIER ST & STUDER AVE,,39.94321,-82.965251,,,,,,0
WHIMILE,2762,E WHITTIER ST & MILLER AVE,,39.943148,-82.962439,,,,,,0
WHIKELE,2763,E WHITTIER ST & KELTON AVE,,39.943046,-82.960278,,,,,,0
WHIBERE,2764,E WHITTIER ST & BERKELEY RD,,39.943033,-82.957888,,,,,,0
WHILILW,2767,E WHITTIER ST & LILLEY AVE,0 E WHITTIER ST & LILLEY AVE,39.943197,-82.959199,,,,,,0
WHIELLW,2768,E WHITTIER ST & ELLSWORTH AVE,,39.943203,-82.961006,,,,,,0
WHILOCW,2769,E WHITTIER ST & LOCKBOURNE RD,,39.943296,-82.963396,,,,,,0
WHILINW,2770,E WHITTIER ST & LINWOOD AVE,,39.943368,-82.96615,,,,,,0
WHIOAKW,2771,E WHITTIER ST & OAKWOOD AVE,,39.943529,-82.969529,,,,,,0
WHIOHIW,2773,E WHITTIER ST & S OHIO AVE,,39.943636,-82.971726,,,,,,0
WHIGILW,2774,E WHITTIER ST & GILBERT ST,,39.943773,-82.974309,,,,,,0
WHIHEYW,2775,E WHITTIER ST & HEYL AVE,,39.943916,-82.977244,,,,,,0
WHI17TW,2776,E WHITTIER ST & S 17TH ST,,39.944015,-82.979137,,,,,,0
WHIPARW,2777,E WHITTIER ST & PARSONS AVE,,39.944274,-82.982852,,,,,,0
WHIBEEW,2778,E WHITTIER ST & BEECH ST,,39.944383,-82.985954,,,,,,0
WHIEBNW,2779,E WHITTIER ST & EBNER ST,,39.944507,-82.988398,,,,,,0
WHI5THW,2780,E WHITTIER ST & S 5TH ST,,39.944588,-82.991193,,,,,,0
WHI3RDW,2782,E WHITTIER ST & S 3RD ST,,39.944253,-82.994159,,,,,,0
PARWHIS,2787,PARSONS AVE & E WHITTIER ST,,39.944378,-82.983036,,,,,,0
PARZIMS,2788,PARSONS AVE & ZIMPFER ST,,39.942286,-82.983197,,,,,,0
PARGATS,2790,PARSONS AVE & E GATES ST,0 PARSONS AVE & HANFORD ST,39.936768,-82.983547,,,,,,0
PARFRES,2791,PARSONS AVE & FREBIS AVE,,39.935229,-82.983741,,,,,,0
PARSHES,2792,PARSONS AVE & SHELDON AVE,0 PARSONS AVE & SHELDON AVE,39.933564,-82.983884,,,,,,0
PARSOUS,2793,PARSONS AVE & SOUTHWOOD AVE,,39.931704,-82.984011,,,,,,0
PARWELS,2794,PARSONS AVE & E WELCH AVE,,39.929662,-82.984158,,,,,,0
PARINNS,2796,PARSONS AVE & E INNIS AVE,,39.925977,-82.984424,,,,,,0
PARBARS,2797,PARSONS AVE & E BARTHMAN AVE,,39.923919,-82.984577,,,,,,0
PARGROS,2798,PARSONS AVE & GROVEPORT RD,,39.919524,-82.984892,,,,,,0
PARDERS,2799,PARSONS AVE & DERING AVE,,39.912155,-82.985417,,,,,,0
PARCORS,2800,PARSONS AVE & CORR RD,,39.909573,-82.985637,,,,,,0
PARALCS,2801,PARSONS AVE & E ALCOTT RD,,39.906179,-82.985876,,,,,,0
PARZIES,2802,PARSONS AVE & ZIEGLER AVE,,39.902842,-82.986133,,,,,,0
PARRUMS,2806,PARSONS AVE & RUMSEY RD,,39.893606,-82.98686,,,,,,0
PARWILN,2810,PARSONS AVE & WILLIAMS RD,0 PARSONS AVE & WILLIAMS RD,39.891695,-82.986822,,,,,,0
PARRUMN,2811,PARSONS AVE & RUMSEY AVE,PARSONS AVE & RUMSEY RD,39.893735,-82.986722,,,,,,0
PARHILN,2812,PARSONS AVE & HILOCK AVE,,39.897331,-82.986445,,,,,,0
PARZIEN,2814,PARSONS AVE & ZIEGLER AVE,,39.902785,-82.986007,,,,,,0
PARALCN,2815,PARSONS AVE & E ALCOTT RD,,39.906056,-82.985761,,,,,,0
PARCORN,2816,PARSONS AVE & CORR RD,,39.908953,-82.985549,,,,,,0
PARDERN,2817,PARSONS AVE & DERING AVE,,39.912213,-82.985286,,,,,,0
PARMARN,2819,PARSONS AVE & MARION RD,,39.923529,-82.984469,,,,,,0
PARINNN,2820,PARSONS AVE & E INNIS AVE,,39.925995,-82.984226,,,,,,0
PARMORN,2822,PARSONS AVE & E MORRILL AVE,,39.929639,-82.983992,,,,,,0
PARMARN1,2823,PARSONS AVE & E MARKISON AVE,,39.931049,-82.983877,,,,,,0
PARJENN,2824,PARSONS AVE & E JENKINS AVE,,39.933492,-82.983703,,,,,,0
PARFREN,2825,PARSONS AVE & FREBIS AVE,,39.935386,-82.983562,,,,,,0
PARGATN,2826,PARSONS AVE & E GATES ST,,39.937371,-82.983408,,,,,,0
PARTHUN,2827,PARSONS AVE & THURMAN AVE,,39.939452,-82.983238,,,,,,0
PARSTEN,2828,PARSONS AVE & STEWART AVE,0 PARSONS AVE & ZIMPFER ST,39.941838,-82.983036,,,,,,0
PARSYCN,2831,PARSONS AVE & SYCAMORE ST,,39.949553,-82.982476,,,,,,0
PARGROVN,2838,PARSONS AVE & GROVEPORT RD,PARSONS AVE & GROVEPORT PIKE LOOP,39.918561,-82.984792,,,,,,0
NORZOLS,2851,NORTHWEST BLVD & ZOLLINGER RD,,40.018418,-83.057489,,,,,,0
NORRIDS,2852,NORTHWEST BLVD & RIDGEVIEW RD,,40.014595,-83.057744,,,,,,0
NORNORTS,2853,NORTHWEST BLVD & NORTHAM RD,,40.01193,-83.057937,,,,,,0
NORLANSE,2855,NORTHWEST BLVD & W LANE AVE,,40.00687,-83.058276,,,,,,0
NORSUFSE,2857,NORTHWEST BLVD & SUFFOLK RD,,40.003781,-83.058158,,,,,,0
NORGUISE,2858,NORTHWEST BLVD & GUILFORD RD,,40.001897,-83.055686,,,,,,0
NORBARSE,2859,NORTHWEST BLVD & BARRINGTON RD,,40.000038,-83.054414,,,,,,0
NORGLESE,2860,NORTHWEST BLVD & GLENN AVE,,39.998425,-83.052558,,,,,,0
NORSTASE,2862,NORTHWEST BLVD & STANFORD RD,,39.996615,-83.049054,,,,,,0
NORNORSE,2864,NORTHWEST BLVD & NORTHWEST CT,,39.995753,-83.046862,,,,,,0
NORCHASE,2865,NORTHWEST BLVD & CHAMBERS RD,,39.993457,-83.041924,,,,,,0
NOR5THS,2867,NORTHWEST BLVD & W 5TH AVE,,39.988828,-83.040963,,,,,,0
NORTHOSE,2868,NORTHWEST BLVD & THORNWOOD PL,,39.986836,-83.041075,,,,,,0
3RDMEAW,2879,W 3RD AVE & MEADOW RD,,39.984886,-83.038725,,,,,,0
NORKINN,2880,NORTHWEST BLVD & KING AVE,,39.991299,-83.040489,,,,,,0
NORINDNW,2882,NORTHWEST BLVD & INDEPENDENCE RD,,39.994944,-83.044784,,,,,,0
NORNORN,2883,NORTHWEST BLVD & NORTHWEST CT,,39.995721,-83.046454,,,,,,0
NORNORNW,2884,NORTHWEST BLVD & NORTH STAR RD,,39.996829,-83.04911,,,,,,0
NORWILSN,2885,NORTHWEST BLVD & WILSHIRE DR,,40.009517,-83.057918,,,,,,0
NORRIDN,2887,NORTHWEST BLVD & RIDGEVIEW RD,,40.014359,-83.057619,,,,,,0
FISCHAW,2894,FISHINGER RD & CHAUCER DR,,40.024132,-83.050426,,,,,,0
FISPEMW,2895,FISHINGER RD & PEMBERTON DR,,40.024287,-83.054384,,,,,,0
HIGBROS,2900,N HIGH ST & W BROAD ST,,39.962805,-83.000871,,,,,,0
VANREDS,2901,VANTAGE DR & RED ROOF INN,,40.116283,-83.014579,,,,,,0
HENGETE,2902,HENDERSON RD & GETTYSBURG RD,,40.055934,-83.072279,,,,,,0
GOO582W,2906,582 W GOODALE ST,,39.974278,-83.019074,,,,,,0
GOOYARW,2907,GOODALE BLVD & YARD ST,0 GOODALE BLVD & EDGEWORTH ST,39.974295,-83.025085,,,,,,0
NORGOON,2908,NORTHWEST BLVD & GOODALE BLVD,,39.974832,-83.02899,,,,,,0
NORBURNW,2909,NORTHWEST BLVD & BURR AVE,,39.976434,-83.029127,,,,,,0
NORWILLN,2910,NORTHWEST BLVD & WILLIAMS AVE,,39.977925,-83.02979,,,,,,0
1STNORW,2911,W 1ST AVE & NORTHWEST BLVD,0 NORTHWEST BLVD & COPELAND RD,39.979944,-83.032174,,,,,,0
1STOXLW,2912,W 1ST AVE & OXLEY RD,,39.979931,-83.034525,,,,,,0
1STVIRW,2913,W 1ST AVE & VIRGINIA AVE,,39.981173,-83.037587,,,,,,0
1STWILW,2914,W 1ST AVE & WILLARD AVE,,39.981563,-83.038645,,,,,,0
1STAVOW,2915,W 1ST AVE & AVONDALE AVE,,39.98176,-83.041759,,,,,,0
1STGRAW,2916,W 1ST AVE & GRANDVIEW AVE,,39.981894,-83.04484,,,,,,0
5THARLW,2926,W 5TH AVE & ARLINGTON AVE,0 W 5TH AVE & ARLINGTON AVE,39.989524,-83.059974,,,,,,0
1STGLEE,2939,W 1ST AVE & GLENDALE AVE,,39.981731,-83.043596,,,,,,0
1STHOPE,2940,W 1ST AVE & HOPE AVE,,39.98161,-83.04033,,,,,,0
1STVIRE,2941,W 1ST AVE & VIRGINIA AVE,,39.981012,-83.037558,,,,,,0
1STOXLE,2942,W 1ST AVE & OXLEY RD,,39.97978,-83.034182,,,,,,0
NOR1STSE,2943,NORTHWEST BLVD & W 1ST AVE,0 NORTHWEST BLVD,39.979552,-83.031677,,,,,,0
GOOYARE,2947,GOODALE BLVD & YARD ST,,39.974163,-83.026091,,,,,,0
HARMOUS,2953,HARRISBURG PIKE & W MOUND ST,,39.944606,-83.036764,,,,,,0
HAR771S,2954,771 HARRISBURG PIKE,,39.941809,-83.038887,,,,,,0
HARGARS,2955,HARRISBURG PIKE & GARLING AVE,,39.939865,-83.040387,,,,,,0
HARRANS,2957,HARRISBURG PIKE & RANSBURG AVE,,39.937486,-83.042238,,,,,,0
HARROSS,2958,HARRISBURG PIKE & ROSEMONT AVE,,39.9359,-83.043564,,,,,,0
HAR111S,2959,1117 HARRISBURG PIKE,,39.933384,-83.046745,,,,,,0
HAREAKS1,2960,HARRISBURG PIKE & EAKIN RD,,39.931744,-83.048832,,,,,,0
HAR151S,2961,1515 HARRISBURG PIKE,,39.926463,-83.057121,,,,,,0
HAR165S,2963,1657 HARRISBURG PIKE,,39.923768,-83.059249,,,,,,0
HARCLIS,2964,HARRISBURG PIKE & CLIME RD,,39.92069,-83.061773,,,,,,0
HARALKS,2965,HARRISBURG PIKE & ALKIRE RD,,39.915172,-83.065953,,,,,,0
HARBLUS,2966,HARRISBURG PIKE & BLUE ROCK BLVD,,39.911203,-83.069367,,,,,,0
HARHYDS,2967,HARRISBURG PIKE & HYDE RD,,39.908832,-83.071707,,,,,,0
BROHOMS,2968,BROADWAY & HOME RD,BROADWAY & HOME ROAD,39.901249,-83.077996,,,,,,0
BROROSS,2973,BROADWAY & ROSE AVE,,39.887929,-83.088704,,,,,,0
BROBURS,2974,BROADWAY & BURR OAK DR,,39.885675,-83.090658,,,,,,0
COLLEIW,2988,COLUMBUS ST & LEITHART DR,,39.881304,-83.072052,,,,,,0
COLSECW,2989,COLUMBUS ST & SECURITY DR,,39.881426,-83.076882,,,,,,0
RICSOUNF,2993,RICHARD AVE & SOUTHWEST BLVD,,39.890952,-83.080245,,,,,,0
RICADDN,2994,RICHARD AVE & ADDISON DR,,39.89273,-83.080176,,,,,,0
RICPARN,2995,RICHARD AVE & PARLIN DR,,39.895049,-83.078824,,,,,,0
PARBROW,2996,PARLIN DR & BROADWAY,0 PARLIN DR & BROADWAY,39.89543,-83.081568,,,,,,0
BROCENN,2997,BROADWAY & CENTRAL AVE,,39.897761,-83.080449,,,,,,0
BRO3136,2998,3136 BROADWAY,,39.900469,-83.078398,,,,,,0
HARHYDN,2999,HARRISBURG PIKE & HYDE RD,,39.908845,-83.071358,,,,,,0
HARREDN,3000,HARRISBURG PIKE & RED ROCK BLVD,,39.914253,-83.066391,,,,,,0
HARBIGN,3001,HARRISBURG PIKE & BIG RUN RD E,,39.916344,-83.064898,,,,,,0
HAR196N,3002,1896 HARRISBURG PIKE,,39.919363,-83.062659,,,,,,0
HARFRAN,3003,HARRISBURG PIKE & FRANK RD,,39.921589,-83.060873,,,,,,0
HAROCTN,3005,HARRISBURG PIKE & OCTOBER RIDGE DR,,39.92646,-83.056896,,,,,,0
HARHOPN,3006,HARRISBURG PIKE & HOPKINS AVE,,39.932286,-83.047909,,,,,,0
HARBELN,3007,HARRISBURG PIKE & BELMEAD AVE,,39.933296,-83.0466,,,,,,0
HARLAUN,3008,HARRISBURG PIKE & LAUREL AVE,,39.93483,-83.044652,,,,,,0
HARROSN,3009,HARRISBURG PIKE & ROSEMONT AVE,,39.935942,-83.043295,,,,,,0
HARRANN,3010,HARRISBURG PIKE & RANSBURG AVE,,39.937412,-83.042067,,,,,,0
HARGARN,3011,HARRISBURG PIKE & GARLING AVE,,39.939746,-83.040263,,,,,,0
HAR800N,3012,800 HARRISBURG PIKE,,39.941849,-83.038657,,,,,,0
FIE5THN,3014,FIELDS AVE & E 5TH AVE,,39.987117,-82.991984,,,,,,0
REFCOUE,3067,REFUGEE RD & COURTRIGHT RD,,39.916357,-82.897176,,,,,,0
CLEBLEN1,3072,CLEVELAND AVE & BLENDON WOODS BLVD,,40.093387,-82.950331,,,,,,0
CLEBELLN,3073,CLEVELAND AVE & BELLA VIA AVE,,40.096026,-82.95013,,,,,,0
CLEHOMN,3074,CLEVELAND AVE & HOME ACRE DR,,40.097983,-82.949969,,,,,,0
CLE340N,3077,340 S CLEVELAND AVE,,40.116149,-82.948663,,,,,,0
CLEDEES,3078,CLEVELAND AVE & DEEWOOD DR,,40.09633,-82.950307,,,,,,0
CLEBLES1,3079,CLEVELAND AVE & BLENDON WOODS BLVD,CLEVELAND AVE & LAURELWOOD DR,40.093165,-82.950543,,,,,,0
CLEFUJS,3081,CLEVELAND AVE & FUJI DR,,40.088864,-82.950876,,,,,,0
CLELAMN,3082,CLEVELAND AVE & LAMONT AVE,,40.043049,-82.959723,,,,,,0
CLEFERN,3084,CLEVELAND AVE & FERRIS RD,,40.050481,-82.953587,,,,,,0
CLEBELCN,3085,CLEVELAND AVE & BELCHER DR,,40.0555,-82.953204,,,,,,0
CLEMORN,3086,CLEVELAND AVE & MORSE RD,,40.05916,-82.952914,,,,,,0
CLEABIN,3087,CLEVELAND AVE & ABINGTON RD,,40.064432,-82.952521,,,,,,0
CLENORWN,3088,CLEVELAND AVE & NORTHWOLD RD,,40.06658,-82.952353,,,,,,0
CLEWOON,3091,CLEVELAND AVE & WOODLEY RD,,40.076189,-82.951621,,,,,,0
CLEWILN,3092,CLEVELAND AVE & WILDWOOD RD,,40.07885,-82.951434,,,,,,0
NEIKINN,3105,NEIL AVE & KING AVE,,39.990627,-83.01365,,,,,,0
CLE161SF,3125,CLEVELAND AVE & STATE ROUTE 161,,40.084198,-82.951251,,,,,,0
CLEWILS,3126,CLEVELAND AVE & WILDWOOD RD,,40.078492,-82.951662,,,,,,0
CLEWOOS,3128,CLEVELAND AVE & WOODLEY RD,,40.07594,-82.951844,,,,,,0
CLETAYS,3131,CLEVELAND AVE & TAYMOUTH RD,,40.066348,-82.95259,,,,,,0
CLEMORS,3133,CLEVELAND AVE & MORSE RD,,40.058766,-82.953179,,,,,,0
CLEBELS,3134,CLEVELAND AVE & BELCHER DR,,40.054783,-82.95349,,,,,,0
CLEFERS,3135,CLEVELAND AVE & FERRIS RD,,40.049263,-82.9541,,,,,,0
CLECOOS,3137,CLEVELAND AVE & E COOKE RD,,40.044028,-82.959103,,,,,,0
CLEELMS,3139,CLEVELAND AVE & NORTHERN LIGHTS PARK & RIDE,,40.040942,-82.961093,,,,,,0
MAINOEE,3140,E MAIN ST & NOE BIXBY RD,,39.954685,-82.851808,,,,,,0
SPRFROW,3142,W SPRING ST & N FRONT ST,,39.966206,-83.002663,,,,,,0
MAINOEW,3143,E MAIN ST & NOE BIXBY RD,,39.954829,-82.852023,,,,,,0
HARZETS,3146,HARRISBURG PIKE & ZETTLER CENTER DR,,39.930187,-83.05124,,,,,,0
CAS10TN,3147,N CASSADY AVE & E 10TH AVE,,39.989676,-82.930527,,,,,,0
CAS13TN,3148,N CASSADY AVE & E 13TH AVE,,39.992386,-82.930261,,,,,,0
CASBAYN,3153,N CASSADY AVE & BAYLOR AVE,,40.013914,-82.929097,,,,,,0
CASCASN,3155,N CASSADY AVE & CASSADY VILLAGE TRL,,40.016834,-82.928912,,,,,,0
AGLPENE,3156,AGLER RD & PENDLETON PL,,40.020962,-82.926823,,,,,,0
CASAGLS,3172,N CASSADY AVE & AGLER RD,,40.02031,-82.928792,,,,,,0
CASBAYS,3174,N CASSADY AVE & BAYLOR AVE,,40.013361,-82.929237,,,,,,0
KENLONS,3175,KENNY RD & LONDON DR,,40.027958,-83.046966,,,,,,0
5THTAYE,3176,E 5TH AVE & TAYLOR AVE,,39.98519,-82.960575,,,,,,0
5THSTEE,3177,E 5TH AVE & STERLING AVE,,39.984658,-82.919914,,,,,,0
5THJAME,3178,E 5TH AVE & N JAMES RD,,39.984409,-82.908644,,,,,,0
CASKENS,3179,N CASSADY AVE & KENILWORTH RD,,39.992087,-82.930414,,,,,,0
CAS5THS,3181,N CASSADY AVE & E 5TH AVE,,39.985403,-82.93154,,,,,,0
5TH7THE,3184,E 5TH AVE & E 7TH AVE,,39.985158,-82.904661,,,,,,0
5TH370E,3185,3706 E 5TH AVE,,39.985602,-82.89967,,,,,,0
LIVNOEE,3187,E LIVINGSTON AVE & NOE BIXBY RD,,39.943321,-82.853274,,,,,,0
LIVLONE,3188,E LIVINGSTON AVE & LONSDALE RD,,39.94315,-82.850289,,,,,,0
LIVBAIE,3189,E LIVINGSTON AVE & BAIRSFORD DR,,39.943061,-82.844026,,,,,,0
LIVWALE,3190,E LIVINGSTON AVE & WALNUT HILL BLVD,,39.942447,-82.837859,,,,,,0
LIVSARE,3191,E LIVINGSTON AVE & SARANAC DR,,39.942287,-82.835388,,,,,,0
LIVBRIE,3192,E LIVINGSTON AVE & BRICE RD,,39.941991,-82.830317,,,,,,0
MAIHAFE,3200,E MAIN ST & HAFT DR,,39.955118,-82.806291,,,,,,0
MAIJACE,3202,E MAIN ST & JACKSON ST,,39.955238,-82.800358,,,,,,0
MAIGRAHE,3203,E MAIN ST & GRAHAM RD,,39.955324,-82.795674,,,,,,0
5TH430E,3204,4301 E 5TH AVE,,39.987174,-82.88955,,,,,,0
5TH4301W,3205,4301 E 5TH AVE,,39.987441,-82.88947,,,,,,0
MAIJACW,3206,E MAIN ST & JACKSON ST,,39.955403,-82.799452,,,,,,0
MAIHAFW,3208,E MAIN ST & HAFT DR,,39.955272,-82.806424,,,,,,0
MAIHENW,3210,E MAIN ST & HENTZ DR,,39.955124,-82.81465,,,,,,0
SAIBUCN,3216,SAINT CLAIR AVE & BUCKINGHAM ST,,39.972817,-82.980713,,,,,,0
LIVBAIW,3217,E LIVINGSTON AVE & BAIRSFORD DR,,39.943203,-82.844267,,,,,,0
LIVLONW,3218,E LIVINGSTON AVE & LONSDALE RD,,39.943288,-82.84989,,,,,,0
LIVNOEW,3219,E LIVINGSTON AVE & NOE BIXBY RD,0 E LIVINGSTON AVE & NOE BIXBY RD,39.943511,-82.853475,,,,,,0
5TH3925W,3220,3925 E 5TH AVE,,39.985828,-82.899913,,,,,,0
REFNOEW,3228,REFUGEE RD & NOE BIXBY RD,,39.915209,-82.864474,,,,,,0
REFTENW,3230,REFUGEE RD & TENNYSON BLVD,,39.915223,-82.873639,,,,,,0
REFCOUW,3233,REFUGEE RD & COURTRIGHT RD,,39.916572,-82.897403,,,,,,0
REFWEYW,3234,REFUGEE RD & WEYBURN RD,,39.916942,-82.90424,,,,,,0
5TH7THW,3237,E 5TH AVE & E 7TH AVE,,39.985374,-82.90491,,,,,,0
REFSCHE,3238,REFUGEE RD & SCHWARTZ RD,,39.916989,-82.908666,,,,,,0
REFWEYE,3239,REFUGEE RD & WEYBURN RD,,39.916702,-82.903389,,,,,,0
REFCITE,3242,REFUGEE RD & CITIZENS PL,,39.915317,-82.878453,,,,,,0
REFTENE,3243,REFUGEE RD & TENNYSON BLVD,0 REFUGEE RD & TENNYSON BLVD,39.915094,-82.874015,,,,,,0
CHANOEE,3245,CHATTERTON RD & NOE BIXBY RD,,39.915489,-82.862542,,,,,,0
5THJAMW,3251,E 5TH AVE & N JAMES RD,,39.984674,-82.908535,,,,,,0
5THTAYW,3262,E 5TH AVE & TAYLOR AVE,,39.985329,-82.959929,,,,,,0
HILNIKN,3296,HILLIARD ROME RD & NIKE DR,,39.99464,-83.152323,,,,,,0
HILROBN,3297,HILLIARD ROME & ROBERTS RD,HILLIARD ROME RD & ROBERTS RD,40.004176,-83.153716,,,,,,0
MAILUTN,3298,MAIN ST & LUTHER LN,,40.022668,-83.160047,,,,,,0
CEMOUTE,3304,CEMETERY RD & OUTER ST,,40.031351,-83.14321,,,,,,0
CEMLEAE,3305,CEMETERY RD & LEAP RD,,40.031688,-83.139517,,,,,,0
5THSAIW,3307,E 5TH AVE & SAINT CLAIR AVE,,39.986147,-82.979985,,,,,,0
SAIOLDN,3330,SAINT CLAIR AVE & LEONARD AVE,,39.975619,-82.98047,,,,,,0
MAILUTS,3334,MAIN ST & LUTHER LN,,40.022595,-83.160279,,,,,,0
FISKENW,3339,FISHINGER RD & KENNY RD,,40.023532,-83.043678,,,,,,0
MCK3265S,3340,3265 MCKINLEY AVE,,39.994035,-83.084398,,,,,,0
FISEASE,3343,FISHINGER RD & EASTON PL,,40.023398,-83.044372,,,,,,0
KENOBEN,3344,KENNY RD & OBERLIN DR,,40.026039,-83.04502,,,,,,0
KARHEMN,3349,KARL RD & HEMPWOOD DR,,40.084379,-82.975397,,,,,,0
REFCITW1,3416,REFUGEE RD & CITIZENS PL,0 REFUGEE RD & CITIZENS PL,39.915406,-82.876529,,,,,,0
REFSCHW,3417,REFUGEE RD & SCHWARTZ RD,,39.917157,-82.909024,,,,,,0
OLE3230N,3421,3230 OLENTANGY RIVER RD,,40.025746,-83.026455,,,,,,0
NORSHAW,3423,W NORTH BROADWAY & SHATTUCK AVE,,40.029258,-83.042184,,,,,,0
NORCLEW,3424,W NORTH BROADWAY & CLEARVIEW AVE,,40.028778,-83.046258,,,,,,0
KENKENBN,3426,KENNY RD & KENBROOK COMMON ST,,40.030707,-83.049128,,,,,,0
KENTREN,3427,KENNY RD & TREMONT RD,,40.032578,-83.050716,,,,,,0
KENMILN,3429,KENNY RD & MILLCREEK LN,,40.036443,-83.050656,,,,,,0
KENHIGN,3431,KENNY RD & HIGHLAND DR,,40.040346,-83.050398,,,,,,0
KENPARN,3433,KENNY RD & PARKLEIGH RD,,40.043286,-83.050217,,,,,,0
KENWINN,3435,KENNY RD & WINDHAM RD,,40.046919,-83.049952,,,,,,0
KENFOLN,3437,KENNY RD & FOLKESTONE RD,,40.050026,-83.04971,,,,,,0
KENMERN,3439,KENNY RD & MERRIMAR CIR S,,40.054178,-83.049463,,,,,,0
KENWEYN,3441,KENNY RD & WEYBRIDGE RD,,40.056475,-83.049345,,,,,,0
MOUGRANW,3450,MOUNT VERNON AVE & N GRANT AVE,,39.969376,-82.992375,,,,,,0
GODLANSE,3454,GODOWN RD & LANGLAND DR,,40.061304,-83.053138,,,,,,0
GODCHEE,3455,GODOWN RD & CHEVIOT DR,,40.060213,-83.051327,,,,,,0
KENWEYS,3472,KENNY RD & WEYBRIDGE RD,,40.05667,-83.04947,,,,,,0
KENMERS,3474,KENNY RD & MERRIMAR CIR N,,40.054042,-83.049669,,,,,,0
KENFOLS,3476,KENNY RD & FOLKESTONE RD,,40.050478,-83.049884,,,,,,0
KENWINS,3478,KENNY RD & WINDHAM RD,,40.046527,-83.050149,,,,,,0
KENPARS,3480,KENNY RD & PARKLEIGH RD,,40.043228,-83.050394,,,,,,0
KENMCCS,3482,KENNY RD & MCCOY RD,,40.040292,-83.050605,,,,,,0
KENMILS,3484,KENNY RD & MILLCREEK LN,,40.036631,-83.050863,,,,,,0
NORCLEE,3488,W NORTH BROADWAY & CLEARVIEW AVE,,40.02873,-83.045614,,,,,,0
NORSHAE,3489,W NORTH BROADWAY & SHATTUCK AVE,,40.029015,-83.042568,,,,,,0
NORENTE,3490,W NORTH BROADWAY & RIVERSIDE HOSP,,40.029301,-83.034629,,,,,,0
OLEUNIS,3491,OLENTANGY RIVER RD & UNION CEMETERY,,40.027108,-83.027846,,,,,,0
MAIHEAE,3492,E MAIN ST & HEATHERWOOD DR,,39.954727,-82.854714,,,,,,0
MAIMCNE,3515,E MAIN ST & MCNAUGHTEN RD,,39.954665,-82.837873,,,,,,0
MAIIDLE,3518,E MAIN ST & IDLEWILD DR,,39.954708,-82.831149,,,,,,0
MAIBRICE,3519,E MAIN ST & BRICE RD,,39.954747,-82.827904,,,,,,0
MAI652E,3520,6523 E MAIN ST,,39.954808,-82.823552,,,,,,0
REYRIDSW,3522,REYNOLDSBURG PARK & RIDE,2100 BIRCHVIEW DR & REYNOLDSBURG P & R,39.939285,-82.827489,,,,,,0
OLELANN,3524,OLENTANGY RIVER RD & W LANE AVE,,40.007262,-83.022953,,,,,,0
GRA5THS,3525,GRANDVIEW AVE & W 5TH AVE,,39.988412,-83.044558,,,,,,0
MAIROSEE,3526,E MAIN ST & ROSEHILL RD,,39.954896,-82.818746,,,,,,0
MAIHENE,3527,E MAIN ST & HENTZ DR,,39.954963,-82.81478,,,,,,0
ALUCORN,3535,ALUM CREEK DR & CORVAIR BLVD,0 ALUM CREEK DR & CORVAIR BLVD,39.928093,-82.937965,,,,,,0
ALUFRAN,3536,ALUM CREEK DR & INTEGRITY DR S,0 ALUM CREEK DR & FREBIS AVE,39.932518,-82.94163,,,,,,0
FREALUW,3537,FREBIS AVE & ALUM CREEK DR,,39.933734,-82.943244,,,,,,0
FREFREW,3538,FREBIS AVE & FREBIS LN,,39.933849,-82.947355,,,,,,0
FRETHEW,3539,FREBIS AVE & THELMA B KEE,,39.93406,-82.952012,,,,,,0
FREFAIW,3540,FREBIS AVE & FAIRWOOD AVE,,39.934178,-82.954708,,,,,,0
FREBERW,3541,FREBIS AVE & BERKELEY RD,,39.934365,-82.958607,,,,,,0
FREELLW,3542,FREBIS AVE & ELLSWORTH AVE,,39.934527,-82.961788,,,,,,0
CHAMITN,3547,S CHAMPION AVE & E MITHOFF ST,,39.937623,-82.970934,,,,,,0
CHAWHIN,3550,S CHAMPION AVE & E WHITTIER ST,,39.943206,-82.97051,,,,,,0
CHAKOSN,3551,S CHAMPION AVE & E KOSSUTH ST,,39.945425,-82.970367,,,,,,0
CHAFORN,3552,S CHAMPION AVE & FOREST ST,,39.947392,-82.97021,,,,,,0
CHALIVN,3553,S CHAMPION AVE & E LIVINGSTON AVE,,39.949949,-82.970001,,,,,,0
CHANEWN,3554,S CHAMPION AVE & NEWTON ST,,39.951298,-82.969909,,,,,,0
CHAFULN,3555,S CHAMPION AVE & E FULTON ST,,39.955394,-82.969587,,,,,,0
CHAMAIN,3556,S CHAMPION AVE & E MAIN ST,,39.95763,-82.969422,,,,,,0
CHABRYN,3557,S CHAMPION AVE & BRYDEN RD,,39.960736,-82.969148,,,,,,0
CHAOAKN,3558,S CHAMPION AVE & OAK ST,,39.962503,-82.969017,,,,,,0
GOVBRON,3559,GOVERNOR PL & E BROAD ST,,39.966513,-82.968453,,,,,,0
OHIBROS,3567,S OHIO AVE & E BROAD ST,0 S OHIO AVE & E BROAD ST,39.965348,-82.970344,,,,,,0
OHIOAKS,3568,S OHIO AVE & OAK ST,,39.962899,-82.970511,,,,,,0
OHIBRYS,3569,S OHIO AVE & BRYDEN RD,,39.960672,-82.970697,,,,,,0
OHIMAIS,3570,S OHIO AVE & E MAIN ST,,39.957624,-82.970937,,,,,,0
OHIMOOS,3572,S OHIO AVE & MOOBERRY ST,,39.953041,-82.971293,,,,,,0
OHILIVS,3573,S OHIO AVE & E LIVINGSTON AVE,,39.949996,-82.971538,,,,,,0
OHISYCS,3574,S OHIO AVE & E SYCAMORE ST,,39.948517,-82.97164,,,,,,0
OHICOLS,3575,S OHIO AVE & E COLUMBUS ST,,39.946334,-82.971801,,,,,,0
OHIWHIS,3576,S OHIO AVE & E WHITTIER ST,,39.943761,-82.971989,,,,,,0
MORKARE1,3577,MORSE RD & KARL RD,,40.060374,-82.976404,,,,,,0
OHISTES,3578,S OHIO AVE & STEWART AVE,,39.94111,-82.972184,,,,,,0
OHITHUS,3579,S OHIO AVE & THURMAN AVE,,39.938458,-82.972388,,,,,,0
FREBERE,3585,FREBIS AVE & BERKELEY RD,,39.934236,-82.958428,,,,,,0
FRETHEE,3587,FREBIS AVE & THELMA B KEE,,39.933948,-82.952251,,,,,,0
ALUFRES,3590,ALUM CREEK DR & FREBIS AVE,0 ALUM CREEK DR & FREBIS AVE,39.933374,-82.942245,,,,,,0
ALUCORS,3591,ALUM CREEK DR & CORVAIR BLVD,0 ALUM CREEK DR & CORVAIR BLVD,39.928111,-82.938237,,,,,,0
HUDOPPE,3600,E HUDSON ST & HOMECROFT DR,,40.014697,-82.99201,,,,,,0
HUDPONE,3601,E HUDSON ST & PONTIAC ST,,40.01459,-82.989475,,,,,,0
HUDHIAE,3602,E HUDSON ST & HIAWATHA PARK DR,,40.014491,-82.987129,,,,,,0
NOTDORW,3622,NOTTINGHAM RD & S DORCHESTER RD,,40.02555,-83.080243,,,,,,0
NOTKIOW,3623,NOTTINGHAM RD & KIOKA AVE,,40.025712,-83.08395,,,,,,0
NOTMOUW,3629,NOTTINGHAM RD & MOUNTVIEW RD,,40.025239,-83.073027,,,,,,0
NOTRAMW,3631,NOTTINGHAM RD & RAMSGATE RD,,40.025399,-83.076582,,,,,,0
RIDMOUW,3632,RIDGECLIFF RD & MOUNTVIEW RD,,40.023125,-83.072423,,,,,,0
HUDOPPW,3642,E HUDSON ST & GRASMERE AVE,,40.014424,-82.983516,,,,,,0
HUDAZEW,3644,E HUDSON ST & AZELDA AVE,,40.014602,-82.987502,,,,,,0
HUDOSCW,3645,E HUDSON ST & OSCEOLA AVE,,40.014704,-82.989737,,,,,,0
HUDHOMW,3646,E HUDSON ST & HOMECROFT DR,,40.014822,-82.992491,,,,,,0
HUDDAYW,3650,E HUDSON ST & DAYTON AVE,,40.015428,-83.004343,,,,,,0
HUDADAW,3651,E HUDSON ST & ADAMS AVE,,40.015157,-83.007251,,,,,,0
5THNORW,3653,E 5TH AVE & NORTHVIEW AVE,,39.98529,-82.933844,,,,,,0
OAKOAKW,3654,OAKLAND PARK AVE & OAKLAWN ST,0 OAKLAND PARK AVE & KENLAWN ST,40.031565,-82.968091,,,,,,0
OAKNORW,3656,OAKLAND PARK AVE & NORWOOD ST,,40.031732,-82.971868,,,,,,0
OAKOPPW,3657,OAKLAND PARK AVE & ONTARIO ST,,40.031909,-82.975358,,,,,,0
GRA3RDS,3658,GRANDVIEW AVE & W 3RD AVE,,39.985266,-83.044832,,,,,,0
MAIENFE,3660,E MAIN ST & ENFIELD RD,,39.956649,-82.920334,,,,,,0
OAKEISW,3663,OAKLAND PARK AVE & EISENHOWER RD,,40.032767,-82.993408,,,,,,0
EISBROS,3664,EISENHOWER RD & E NORTH BROADWAY,,40.031224,-82.993679,,,,,,0
NORINDW,3665,E NORTH BROADWAY ST & INDIANOLA AVE,,40.031366,-83.001457,,,,,,0
NORHIGW,3669,W NORTH BROADWAY & N HIGH ST,,40.03166,-83.016652,,,,,,0
NORMILW,3670,W NORTH BROADWAY & MILTON AVE,,40.031766,-83.020866,,,,,,0
NORMILE,3673,W NORTH BROADWAY & MILTON AVE,,40.031635,-83.021429,,,,,,0
NORHIGE,3674,W NORTH BROADWAY & N HIGH ST,0 W NORTH BROADWAY & E NORTH BROADWAY,40.031541,-83.016998,,,,,,0
MAIBRIE,3703,E MAIN ST & BRIARCLIFF RD,,39.955021,-82.811486,,,,,,0
MAIROSEW,3704,E MAIN ST & ROSEHILL RD,,39.955042,-82.819482,,,,,,0
MAI650W,3705,6500 E MAIN ST,,39.954985,-82.823027,,,,,,0
MAIBRICW,3706,E MAIN ST & BRICE RD,,39.954883,-82.829692,,,,,,0
MAIMCNW,3707,E MAIN ST & MCNAUGHTEN RD,,39.954851,-82.837082,,,,,,0
MAIHEAW,3708,E MAIN ST & HEATHERWOOD DR,,39.954901,-82.854892,,,,,,0
MAIFOUW,3709,E MAIN ST & FOUNTAIN LN,,39.955052,-82.860003,,,,,,0
CLECOMN,3710,CLEVELAND AVE & COMMUNITY PARK DR,,40.100942,-82.949684,,,,,,0
CLECOMS,3711,CLEVELAND AVE & COMMUNITY PARK DR,,40.099762,-82.950078,,,,,,0
HAMMELN,3712,S HAMILTON RD & MELROY AVE,,39.949051,-82.877409,,,,,,0
OAKMAIE,3714,OAKLAND PARK AVE & MAIZE RD,,40.032495,-82.989805,,,,,,0
REFOLDE,3715,REFUGEE RD & OLD COURTRIGHT RD,,39.916189,-82.893526,,,,,,0
KARSHAS,3716,KARL RD & SHANLEY DR,,40.054808,-82.976484,,,,,,0
HAR187S,3717,1871 HARRISBURG PIKE,,39.91958,-83.062691,,,,,,0
HAR144N,3718,1440 HARRISBURG PIKE,,39.928571,-83.053842,,,,,,0
HAR142S,3719,1421 HARRISBURG PIKE,,39.929104,-83.053192,,,,,,0
OAKHAME,3720,OAKLAND PARK AVE & HAMILTON AVE,,40.031912,-82.977745,,,,,,0
OAKONTE,3721,OAKLAND PARK AVE & ONTARIO ST,,40.031792,-82.97521,,,,,,0
OAKNORE,3722,OAKLAND PARK AVE & NORWOOD ST,,40.031637,-82.972157,,,,,,0
OAKOAKE,3724,OAKLAND PARK AVE & OAKLAWN ST,,40.031454,-82.968596,,,,,,0
SAIBUCS,3727,SAINT CLAIR AVE & BUCKINGHAM ST,,39.972672,-82.980824,,,,,,0
SAI4THN,3730,SAINT CLAIR AVE & GIBBARD AVE,,39.984356,-82.979818,,,,,,0
5THCLEW,3733,E 5TH AVE & CLEVELAND AVE,0 E 5TH AVE & CLEVELAND AVE,39.98643,-82.988357,,,,,,0
5THFIEW,3735,E 5TH AVE & FIELDS AVE,,39.986614,-82.991823,,,,,,0
5TH6THW,3736,E 5TH AVE & N 6TH ST,,39.986838,-82.997081,,,,,,0
CHANOEW,3740,CHATTERTON RD & NOE BIXBY RD,,39.91559,-82.862569,,,,,,0
5THHIGHE,3746,W 5TH AVE & N HIGH ST,,39.987066,-83.005755,,,,,,0
5THGRAE,3749,E 5TH AVE & N GRANT AVE,,39.986673,-82.996511,,,,,,0
5THCLEE,3752,E 5TH AVE & CLEVELAND AVE,,39.986331,-82.988647,,,,,,0
SAI2NDS,3758,SAINT CLAIR AVE & E 2ND AVE,,39.981553,-82.980157,,,,,,0
SAIOLDS,3759,SAINT CLAIR AVE & LEONARD AVE,,39.974951,-82.980643,,,,,,0
CLEORMN,3777,CLEVELAND AVE & ORMOND AVE,,40.047157,-82.955806,,,,,,0
NORNORTN,3781,NORTHWEST BLVD & NORTHAM RD,,40.011664,-83.057797,,,,,,0
NORKINGS,3797,NORTHWEST BLVD & KING AVE,,39.991197,-83.040784,,,,,,0
KINDELE,3803,KING AVE & DELASHMUT AVE,,39.991003,-83.030254,,,,,,0
KINOLEE,3804,KING AVE & OLENTANGY RIVER RD,,39.990867,-83.027099,,,,,,0
DIEWENS,3806,DIERKER RD & WENDYS DR,,40.058192,-83.075342,,,,,,0
KENMANS,3808,KENNY RD & MANSION WAY,,40.02655,-83.045732,,,,,,0
HARREDS,3811,HARRISBURG PIKE & RED ROCK BLVD,,39.913785,-83.066953,,,,,,0
12THIGW,3812,W 12TH AVE & N HIGH ST,,39.996922,-83.008195,,,,,,0
HAMREFN,3816,S HAMILTON RD & REFUGEE RD,,39.915923,-82.880432,,,,,,0
KINOLEW,3818,KING AVE & OLENTANGY RIVER RD,,39.990966,-83.026604,,,,,,0
KINOPPW1,3819,KING AVE & DELASHMUT AVE,,39.991092,-83.030078,,,,,,0
TRAWILW,3823,TRABUE RD & N WILSON RD,,39.987386,-83.108143,,,,,,0
NOREXIW,3825,W NORTH BROADWAY & RIVERSIDE EXIT,,40.029556,-83.035658,,,,,,0
NORCHAN,3841,NORTH STAR RD & CHAMBERS RD,,39.99423,-83.048658,,,,,,0
MAILAMW,3850,E MAIN ST & LAMBY LN,,39.956,-82.892226,,,,,,0
BRYRHOE,3852,BRYDEN RD & RHOADS AVE,,39.959994,-82.948789,,,,,,0
HIGFITN,3856,N HIGH ST & FITZ HENRY BLVD,,40.066362,-83.01918,,,,,,0
CLEBRON,3857,CLEVELAND AVE & BROOKLYN RD,,40.061654,-82.952729,,,,,,0
LIVBERE,3866,E LIVINGSTON AVE & BERKLEY RD,E LIVINGSTON AVE & BERKELEY RD,39.948967,-82.956645,,,,,,0
PARHILS,3872,PARSONS AVE & HILOCK AVE,,39.897205,-82.986577,,,,,,0
HAMMOUS,3904,S HAMILTON RD & E MOUND ST,,39.951529,-82.877422,,,,,,0
HAMLIVS,3906,S HAMILTON RD & E LIVINGSTON AVE,0 HAMILTON RD & ARAGON AVE,39.944046,-82.878023,,,,,,0
HAMGROS,3907,S HAMILTON RD & GROVES RD,,39.929848,-82.879451,,,,,,0
HAMKIMS,3908,S HAMILTON RD & KIMBERLY PKWY,,39.926142,-82.879774,,,,,,0
HAMMACS,3909,S HAMILTON RD & MACSWAY AVE,,39.923247,-82.880068,,,,,,0
MACHAMW,3930,MACSWAY AVE & S HAMILTON RD,MACSWAY AVE & S HAMILTON SERVICE RD,39.923631,-82.880426,,,,,,0
HAMKINN,3931,S HAMILTON RD & KINGSLAND AVE,,39.926128,-82.879515,,,,,,0
HAMGRON,3932,S HAMILTON RD & GROVES RD,,39.930529,-82.879078,,,,,,0
HAMDUNN,3933,S HAMILTON RD & DUNDEE AVE,,39.941246,-82.878095,,,,,,0
HAMMAIN,3936,S HAMILTON RD & E MAIN ST,,39.955184,-82.876833,,,,,,0
HAMWRIN,3937,S HAMILTON RD & WRIGHT AVE,,39.9577,-82.876493,,,,,,0
HAMLANN,3938,S HAMILTON RD & LANGLEY AVE,,39.96002,-82.876287,,,,,,0
INNDERW,3940,INNIS RD & DERBYSHIRE DR,,40.037304,-82.958725,,,,,,0
PERAGLS,3941,PERDUE AVE & AGLER RD,,40.026689,-82.951921,,,,,,0
REFNOEE,3942,REFUGEE RD & NOE BIXBY RD,,39.915153,-82.863982,,,,,,0
HIG18TS,3957,N HIGH ST & E 18TH AVE,,40.002899,-83.008719,,,,,,0
MORSANE,3959,MORSE RD & SANDY LANE RD,,40.061272,-82.992833,,,,,,0
MORMAIE,3960,MORSE RD & MAIZE RD,,40.061013,-82.986769,,,,,,0
MORALME,3961,MORSE RD & ALMONT DR,,40.060778,-82.983057,,,,,,0
KARNORMN,3965,KARL RD & NORMA RD,,40.068183,-82.976667,,,,,,0
KARPENN,3966,KARL RD & PENWORTH DR,,40.071646,-82.97639,,,,,,0
KARSANN,3967,KARL RD & SANDALWOOD PL,,40.077317,-82.975903,,,,,,0
KAR161S1,4004,KARL RD & STATE ROUTE 161,,40.085939,-82.975489,,,,,,0
KARHEMS,4005,KARL RD & HEMPWOOD DR,,40.084476,-82.975594,,,,,,0
KARSANS,4007,KARL RD & SANDALWOOD PL,,40.07728,-82.976126,,,,,,0
KARNORMS,4010,KARL RD & NORMA RD,,40.068485,-82.976856,,,,,,0
MORALMW,4013,MORSE RD & ALMONT DR,,40.061067,-82.983249,,,,,,0
MORMAIW,4014,MORSE RD & MAIZE RD,,40.061326,-82.987732,,,,,,0
MORKINW,4015,MORSE RD & KINGSHILL DR,,40.061435,-82.990308,,,,,,0
CLEREPS,4017,CLEVELAND AVE & REPUBLIC AVE,,40.015588,-82.966281,,,,,,0
LIVBRIW,4025,E LIVINGSTON AVE & BRICE RD,,39.942184,-82.830486,,,,,,0
BRONORE,4050,W BROAD ST & NORTON RD,,39.951666,-83.138929,,,,,,0
SULCOUE,4059,SULLIVANT AVE & COUNTRYBROOK DR E,,39.938988,-83.116127,,,,,,0
LIVLATE,4063,E LIVINGSTON AVE & LATTIMER DR,,39.9441,-82.867046,,,,,,0
5THSAIE,4065,E 5TH AVE & SAINT CLAIR AVE,,39.985953,-82.978946,,,,,,0
5TH20TE,4066,E 5TH AVE & N 20TH ST,,39.985649,-82.971713,,,,,,0
5TH23RE,4067,E 5TH AVE & N 23RD ST,,39.985526,-82.967786,,,,,,0
JOY17TN,4070,JOYCE AVE & E 17TH AVE,,40.000223,-82.965291,,,,,,0
JOY177N,4071,1770 JOYCE AVE,,40.003421,-82.96432,,,,,,0
JOY23RN,4072,JOYCE AVE & E 23RD AVE,,40.005509,-82.963676,,,,,,0
JOY26TN,4073,JOYCE AVE & E 26TH AVE,,40.00782,-82.962956,,,,,,0
JOYBLAN,4074,JOYCE AVE & E BLAKE AVE,,40.010403,-82.962166,,,,,,0
JOY178S,4077,1782 JOYCE AVE,,40.003306,-82.964503,,,,,,0
JOYWINS,4078,JOYCE AVE & WINDSOR AVE,,39.995901,-82.966026,,,,,,0
5THJOYW,4080,E 5TH AVE & JOYCE AVE,,39.985668,-82.967549,,,,,,0
5TH20TW,4081,E 5TH AVE & N 20TH ST,,39.985848,-82.972558,,,,,,0
HIGRICN,4085,S HIGH ST & E RICH ST,,39.957314,-82.999596,,,,,,0
HIGSTANN,4087,S HIGH ST & E STATE ST,,39.959836,-83.000015,,,,,,0
HIGNATN,4092,N HIGH ST & E NATIONWIDE BLVD,,39.968227,-83.001755,,,,,,0
HIGOHIN,4094,N HIGH ST & OHIO CENTER WAY,,39.96987,-83.002013,,,,,,0
HIGSPRUN,4095,N HIGH ST & SPRUCE ST,,39.972747,-83.002579,,,,,,0
HIGSWANS,4096,N HIGH ST & SWAN ST,N HIGH ST & W SWAN ST,39.973099,-83.00285,,,,,,0
LIVQUAE,4097,E LIVINGSTON AVE & QUARRY RIDGE DR,,39.942963,-82.841065,,,,,,0
HIGNATS,4100,N HIGH ST & W NATIONWIDE BLVD,N HIGH ST & @ W NATIONWIDE BLVD,39.968182,-83.001838,,,,,,0
HIGLONS,4101,N HIGH ST & W LONG ST,N HIGH ST & E LONG ST,39.965157,-83.001322,,,,,,0
MAIMAIW,4104,E MAIN ST & MAIN 270 CENTER,,39.954861,-82.835096,,,,,,0
HIGTOWS,4106,S HIGH ST & W TOWN ST,,39.958095,-82.999953,,,,,,0
HIGMOUS,4109,S HIGH ST & W MOUND ST,,39.954153,-82.999185,,,,,,0
LIVSARW,4111,E LIVINGSTON AVE & SARANAC DR,,39.942456,-82.835749,,,,,,0
3RDGAYS,4113,N 3RD ST & E GAY ST,,39.964722,-82.998503,,,,,,0
3RDBROS1,4114,S 3RD ST & E BROAD ST,,39.962082,-82.997991,,,,,,0
3RDTOWS,4116,S 3RD ST & E TOWN ST,,39.958674,-82.997335,,,,,,0
3RDMAIS,4118,S 3RD ST & E MAIN ST,,39.95584,-82.996795,,,,,,0
FROGAYN,4122,N FRONT ST & W GAY ST,N FRONT ST & W ELM ST,39.963774,-83.00265,,,,,,0
MCK1600W,4124,MCKINLEY ADMIN OFFICE,1600 MCKINLEY ADMIN OFFICE,39.964561,-83.044936,,,,,,0
MCKPARK,4127,MCKINLEY PARK,1453 MCKINLEY AVE,39.963709,-83.040637,,,,,,0
MCKCENE,4128,MCKINLEY AVE & N CENTRAL AVE,,39.963603,-83.03873,,,,,,0
COUCLAS,4129,COURTRIGHT RD & CLARKSTON AVE,,39.923168,-82.898913,,,,,,0
COUCLAN,4130,COURTRIGHT RD & CLARKSTON AVE,,39.923092,-82.898721,,,,,,0
MCKYALE,4131,MCKINLEY AVE & N YALE AVE,,39.96334,-83.033499,,,,,,0
MCKCYPE,4132,MCKINLEY AVE & N CYPRESS AVE,,39.963119,-83.028993,,,,,,0
BROHIGE1,4134,E BROAD ST & S HIGH ST,,39.962204,-83.000208,,,,,,0
BRO3RDE,4135,E BROAD ST & S 3RD ST,,39.962453,-82.997482,,,,,,0
BRO4THE,4136,E BROAD ST & S 4TH ST,,39.962579,-82.996409,,,,,,0
BRO5THE,4137,E BROAD ST & S 5TH ST,,39.962871,-82.994446,,,,,,0
BROGRAE,4138,E BROAD ST & S GRANT AVE,,39.963174,-82.991252,,,,,,0
BROWASAE,4140,E BROAD ST & S WASHINGTON AVE,,39.963682,-82.987431,,,,,,0
BROJEFE,4141,E BROAD ST & JEFFERSON AVE,,39.963913,-82.984857,,,,,,0
BROPARSE,4142,E BROAD ST & PARSONS AVE,,39.964363,-82.981014,,,,,,0
MCK851E,4145,851 MCKINLEY AVE,851 MCKINLEY AVE & N SOUDER AVE,39.962837,-83.023972,,,,,,0
BROGRAW,4146,E BROAD ST & N GRANT AVE,,39.963383,-82.991516,,,,,,0
BRO5THW,4147,E BROAD ST & N 5TH ST,,39.963089,-82.994028,,,,,,0
BRO3RDW,4148,E BROAD ST & N 3RD ST,,39.962689,-82.997563,,,,,,0
BROMARW,4150,W BROAD ST & MARCONI BLVD,,39.962007,-83.003631,,,,,,0
BROSKIW,4154,W BROAD ST & N SKIDMORE ST,,39.96035,-83.016586,,,,,,0
MCK856W,4155,856 MCKINLEY AVE,,39.962993,-83.024164,,,,,,0
LONHIGE,4157,W LONG ST & N HIGH ST,0 W LONG ST & N HIGH ST,39.964827,-83.001335,,,,,,0
LON4THE,4158,E LONG ST & N 4TH ST,,39.965307,-82.996985,,,,,,0
LONNORE,4159,E LONG ST & NORMANDY AVE,,39.965764,-82.99353,,,,,,0
LONCLEE,4160,E LONG ST & CLEVELAND AVE,,39.966084,-82.990772,,,,,,0
LONWASE,4161,E LONG ST & N WASHINGTON AVE,,39.966483,-82.987293,,,,,,0
LONJEFE,4162,E LONG ST & JEFFERSON AVE,,39.966783,-82.984528,,,,,,0
MCKCYPW,4163,MCKINLEY AVE & N CYPRESS AVE,,39.963195,-83.028714,,,,,,0
5THBASE,4164,E 5TH AVE & BASSETT AVE,,39.985293,-82.962888,,,,,,0
SPRMOUW,4167,E SPRING ST & MOUNT VERNON AVE,,39.968109,-82.987701,,,,,,0
SPRCLEW,4168,E SPRING ST & CLEVELAND AVE,,39.967569,-82.990368,,,,,,0
SPRGRAW,4169,E SPRING ST & N GRANT AVE,,39.967229,-82.992254,,,,,,0
SPRNEIW,4170,E SPRING ST & NEILSTON ST,,39.966955,-82.99467,,,,,,0
5THPKWW,4174,E 5TH AVE & PARKWOOD AVE,,39.985273,-82.95834,,,,,,0
KIMKIME,4178,KIMBERLY PKWY N & KIMBERLY PKWY E,,39.926017,-82.883674,,,,,,0
HILCABS,4179,HILLIARD ROME RD & CABOT COVE DR,,39.998258,-83.153192,,,,,,0
HILCOVN,4180,HILLIARD ROME RD & CABOT COVE DR,,39.998648,-83.152958,,,,,,0
NELOPPN1,4182,NELSON RD & MILLBROOK WAY,,39.974052,-82.947352,,,,,,0
5THBASW,4186,E 5TH AVE & BASSETT AVE,,39.985486,-82.963369,,,,,,0
MCKYALW,4189,MCKINLEY AVE & N YALE AVE,,39.963424,-83.033408,,,,,,0
MCKCENW,4190,MCKINLEY AVE & N CENTRAL AVE,,39.963715,-83.038607,,,,,,0
MCKTRAW,4193,MCKINLEY AVE & MCK TRANSPORTATION,0 MCKINLEY GARAGE PATH & MCKINLEY AVE,39.964411,-83.04135,,,,,,0
HIGERIS,4203,N HIGH ST & ERIE RD,,40.038073,-83.017682,,,,,,0
OLE2825N,4204,2825 OLENTANGY RIVER RD,,40.018477,-83.023723,,,,,,0
HIGWORN,4207,N HIGH ST & WORTHINGTON GALENA RD,,40.096349,-83.01748,,,,,,0
LIV3RDE,4211,E LIVINGSTON AVE & S 3RD ST,,39.952724,-82.996294,,,,,,0
RENHILW,4214,RENNER RD & HILLIARD ROME RD,,39.981368,-83.149655,,,,,,0
TRARASE,4217,TRABUE RD & RASPBERRY RUN DR,,39.986605,-83.109943,,,,,,0
NEI8THS,4227,NEIL AVE & W 8TH AVE,,39.99231,-83.014154,,,,,,0
MOUHIGW3,4228,W MOUND ST & S HIGH ST,,39.95483,-82.999545,,,,,,0
KIMBERE,4234,KIMBERLY PKWY N & PETZINGER RD,0 KIMBERLY PKWY N & LAUREL LN,39.924409,-82.890295,,,,,,0
BROCONEW,4239,W BROAD ST & BROADLAWN AVE,,39.953922,-83.098061,,,,,,0
BROVIOW,4241,W BROAD ST & VIOTIS DR,,39.9537,-83.102286,,,,,,0
BRO4158W,4242,4158 W BROAD ST,4158 W BROAD ST & NATIONWIDE BLVD,39.953242,-83.111634,,,,,,0
GEOSULN,4244,GEORGESVILLE RD & SULLIVANT AVE,,39.941719,-83.111901,,,,,,0
BROWESWE,4259,W BROAD ST & WESTWOOD BLVD,,39.951375,-83.145425,,,,,,0
BROGEOE,4282,W BROAD ST & GEORGESVILLE RD,,39.953112,-83.109579,,,,,,0
BRO386E,4283,3865 W BROAD ST,,39.953436,-83.103439,,,,,,0
BRO3953E,4284,3953 W BROAD ST,3953 W BROAD ST & GANTZ RD,39.953242,-83.107147,,,,,,0
BROBROLE,4286,W BROAD ST & BROADLAWN AVE,,39.953711,-83.097541,,,,,,0
BROWILRE,4287,W BROAD ST & S WILSON RD,,39.95387,-83.094105,,,,,,0
BROSOUTE,4288,W BROAD ST & S SOUTHAMPTON AVE,,39.954167,-83.08801,,,,,,0
FREFREE,4289,FREBIS AVE & FREBIS LN,,39.933682,-82.947036,,,,,,0
MAICOUW,4294,E MAIN ST & COUNTRY CLUB RD,,39.955284,-82.867728,,,,,,0
MAISHAW,4295,E MAIN ST & SHADY LANE RD,,39.955376,-82.871096,,,,,,0
OBE301E,4298,301 OBETZ RD,,39.881812,-82.992466,,,,,,0
HIGDERN,4300,S HIGH ST & DERING AVE,,39.912721,-82.995249,,,,,,0
LONHAMW,4307,E LONG ST & HAMILTON AVE,,39.967298,-82.981414,,,,,,0
NELMILS,4313,N NELSON RD & MILLBROOK WAY,,39.974056,-82.947493,,,,,,0
GREWOOWA,4316,GREENWAY AVE & GREENWAY LOOP,,39.974053,-82.955907,,,,,,0
TAYLONN,4320,TAYLOR AVE & E LONG ST,,39.969116,-82.961496,,,,,,0
MAIESTE,4321,E MAIN ST & ESTATES LN,,39.955407,-82.791887,,,,,,0
GOLHILW,4324,GOLDSMITH DR & HILTON DR,,39.957746,-82.782274,,,,,,0
CARMAIS,4326,CARLYLE DR & E MAIN ST,,39.956018,-82.784105,,,,,,0
MAIESTW,4327,E MAIN ST & ESTATES LN,,39.955591,-82.791025,,,,,,0
MAIWAGW,4328,E MAIN ST & WAGGONER RD,,39.955475,-82.796211,,,,,,0
HAMDUNS,4330,S HAMILTON RD & DUNDEE AVE,,39.941691,-82.878255,,,,,,0
HAMHARS,4332,S HAMILTON RD & HARBOR BLVD,,39.903819,-82.881765,,,,,,0
HAMHARN,4335,S HAMILTON RD & HARBOR BLVD,,39.904035,-82.881496,,,,,,0
COUDESN,4343,COURTRIGHT RD & E DESHLER AVE,,39.936833,-82.897596,,,,,,0
JAMANAN,4346,N JAMES RD & ANAWANDA AVE,,39.975177,-82.9132,,,,,,0
STEJAMN,4349,STELZER RD & N JAMES RD,,39.980285,-82.913096,,,,,,0
OLEBURN,4350,OLENTANGY RIVER RD & BURNBRAE AVE,2620 OLENTANGY RIVER RD & BURNBRAE AVE,40.014478,-83.022271,,,,,,0
JAMANNS,4351,N JAMES RD & ANAWANDA AVE,,39.974593,-82.913461,,,,,,0
HAMBRON,4352,N HAMILTON RD & E BROAD ST,,39.976673,-82.873838,,,,,,0
HAMPOTN,4353,N HAMILTON RD & POTH RD,,39.980548,-82.872665,,,,,,0
HAMWOON,4354,N HAMILTON RD & WOODCLIFF DR,,39.983549,-82.869882,,,,,,0
HAMAIRN,4355,N HAMILTON RD & SAWYER RD,,39.995506,-82.868389,,,,,,0
HAMROCSS,4390,N HAMILTON RD & ROCKY FORK DR S,,40.009737,-82.867384,,,,,,0
HAMSAWS,4391,N HAMILTON RD & SAWYER RD,,39.994746,-82.868721,,,,,,0
HAMWOOS,4392,N HAMILTON RD & WOODCLIFF DR,,39.983696,-82.870059,,,,,,0
HAMPOTS,4393,N HAMILTON RD & POTH RD,,39.98063,-82.872839,,,,,,0
BRO344W,4408,3440 W BROAD ST,,39.954114,-83.092574,,,,,,0
BROENTW,4409,W BROAD ST & RHODES PARK,,39.956296,-83.050394,,,,,,0
BRO425W,4410,4250 W BROAD ST,4250 W BROAD ST & NATIONWIDE BLVD,39.953065,-83.115235,,,,,,0
BROJEFW,4413,E BROAD ST & JEFFERSON AVE,,39.964224,-82.984176,,,,,,0
BROPARLW,4414,E BROAD ST & PARKLAWN BLVD,,39.975286,-82.882993,,,,,,0
BRO424W,4415,4244 E BROAD ST,,39.974744,-82.888164,,,,,,0
5THKRUE,4416,E 5TH AVE & KRUMM AVE,,39.984585,-82.917844,,,,,,0
GREPARE,4424,GREENWAY AVE & PARKWOOD AVE,,39.97411,-82.958774,,,,,,0
GREELDW,4426,GREENWAY AVE & ELDRIDGE AVE,,39.974154,-82.958261,,,,,,0
OSB5THN,4427,OSBORN AVE & E 5TH AVE,,39.985071,-82.912528,,,,,,0
NOROLEE,4444,W NORTH BROADWAY & OLENTANGY RIVER RD,W NORTH BROADWAY & OLENTANGY RIV RD,40.030904,-83.029716,,,,,,0
12T221W,4445,221 W 12TH AVE,,39.996943,-83.013476,,,,,,0
